{"type":"FeatureCollection","features":[{"geometry": {"type": "Point", "coordinates": [-71.13874888584428, 42.399610761400275]}, "type": "Feature", "id": 1, "properties": {"PoleID": "791-2", "Neighborhood": 11.0, "Description": "Cobrahead", "FixtureType": "A2", "NumLamps": 1, "EditDate": "2014", "StreetSuffix": "RD", "LEDchk": "Yes", "StreetName": "SEAGRAVE", "Lamp1": "791-2", "Intersection": "SEAGRAVE RD", "Owner": "City", "last_edited_date": "2023-02-16", "Street_ID": "791", "Pole_Num": "2"}},{"geometry": {"type": "Point", "coordinates": [-71.13615650218176, 42.399125154391356]}, "type": "Feature", "id": 2, "properties": {"PoleID": "456-7", "Neighborhood": 11.0, "Description": "Cobrahead", "FixtureType": "A3", "NumLamps": 1, "EditDate": "2014", "StreetSuffix": "AVE", "LEDchk": "Yes", "StreetName": "MADISON", "Lamp1": "456-7", "Intersection": "MADISON AVE", "Owner": "City", "last_edited_date": "2023-02-16", "Street_ID": "456", "Pole_Num": "7"}},{"geometry": {"type": "Point", "coordinates": [-71.13593190674109, 42.39754505123229]}, "type": "Feature", "id": 3, "properties": {"PoleID": "340-27", "Neighborhood": 11.0, "Description": "Cobrahead", "FixtureType": "A2", "NumLamps": 1, "EditDate": "2014", "StreetSuffix": "ST", "LEDchk": "Yes", "StreetName": "HARVEY", "Lamp1": "340-27", "Intersection": "HARVEY ST", "Owner": "City", "last_edited_date": "2023-02-16", "Street_ID": "340", "Pole_Num": "27"}},{"geometry": {"type": "Point", "coordinates": [-71.12730718833025, 42.39662195885833]}, "type": "Feature", "id": 4, "properties": {"PoleID": "445-8", "Neighborhood": 11.0, "Description": "Cobrahead", "FixtureType": "A3", "NumLamps": 1, "EditDate": "2014", "StreetSuffix": "ST", "LEDchk": "Yes", "StreetName": "LOCKE", "Lamp1": "445-8", "Intersection": "LOCKE ST", "Owner": "City", "last_edited_date": "2023-02-16", "Street_ID": "445", "Pole_Num": "8"}},{"geometry": {"type": "Point", "coordinates": [-71.1288278743302, 42.396291165068774]}, "type": "Feature", "id": 5, "properties": {"PoleID": "471-280", "Neighborhood": 11.0, "Description": "Cobrahead", "FixtureType": "A1", "NumLamps": 1, "EditDate": "2014", "StreetSuffix": "AVE", "LEDchk": "Yes", "StreetName": "MASSACHUSETTS", "Lamp1": "471-280", "Intersection": "SHEA RD", "Owner": "City", "last_edited_date": "2023-02-16", "Street_ID": "471", "Pole_Num": "280"}},{"geometry": {"type": "Point", "coordinates": [-71.12717716754398, 42.39529768217674]}, "type": "Feature", "id": 6, "properties": {"PoleID": "476-3", "Neighborhood": 11.0, "Description": "Cobrahead", "FixtureType": "A3", "NumLamps": 1, "EditDate": "2014", "StreetSuffix": "RD", "LEDchk": "Yes", "StreetName": "MEACHAM", "Lamp1": "476-3", "Intersection": "MEACHAM RD", "Owner": "City", "last_edited_date": "2023-02-16", "Street_ID": "476", "Pole_Num": "3"}},{"geometry": {"type": "Point", "coordinates": [-71.12676840612957, 42.394713092936186]}, "type": "Feature", "id": 7, "properties": {"PoleID": "218-2", "Neighborhood": 11.0, "Description": "Cobrahead", "FixtureType": "A2", "NumLamps": 1, "EditDate": "2014", "StreetSuffix": "ST", "LEDchk": "Yes", "StreetName": "DOVER", "Lamp1": "218-2", "Intersection": "DOVER ST", "Owner": "City", "last_edited_date": "2023-02-16", "Street_ID": "218", "Pole_Num": "2"}},{"geometry": {"type": "Point", "coordinates": [-71.12680111944168, 42.39417193552874]}, "type": "Feature", "id": 8, "properties": {"PoleID": "471-263", "Neighborhood": 11.0, "Description": "Cobrahead", "FixtureType": "A1", "NumLamps": 1, "EditDate": "2014", "StreetSuffix": "AVE", "LEDchk": "Yes", "StreetName": "MASSACHUSETTS", "Lamp1": "471-263", "Intersection": "MASSACHUSETTS AVE", "Owner": "City", "last_edited_date": "2023-02-16", "Street_ID": "471", "Pole_Num": "263"}},{"geometry": {"type": "Point", "coordinates": [-71.1547346956149, 42.39420314786529]}, "type": "Feature", "id": 9, "properties": {"PoleID": "774-17", "Neighborhood": 12.0, "Description": "Cobrahead", "FixtureType": "A3", "NumLamps": 1, "EditDate": "2014", "StreetSuffix": "AVE", "LEDchk": "Yes", "StreetName": "NORMANDY", "Lamp1": "774-17", "Intersection": "NORMANDY TER", "Owner": "City", "last_edited_date": "2023-02-16", "Street_ID": "774", "Pole_Num": "17"}},{"geometry": {"type": "Point", "coordinates": [-71.15504227554696, 42.39415576678133]}, "type": "Feature", "id": 10, "properties": {"PoleID": "774-15", "Neighborhood": 12.0, "Description": "Cobrahead", "FixtureType": "A3", "NumLamps": 1, "EditDate": "2014", "StreetSuffix": "AVE", "LEDchk": "Yes", "StreetName": "NORMANDY", "Lamp1": "774-15", "Intersection": "NORMANDY AVE", "Owner": "City", "last_edited_date": "2023-02-16", "Street_ID": "774", "Pole_Num": "15"}},{"geometry": {"type": "Point", "coordinates": [-71.15536986513375, 42.394109450416366]}, "type": "Feature", "id": 11, "properties": {"PoleID": "774-13", "Neighborhood": 12.0, "Description": "Cobrahead", "FixtureType": "A3", "NumLamps": 1, "EditDate": "2014", "StreetSuffix": "AVE", "LEDchk": "Yes", "StreetName": "NORMANDY", "Lamp1": "774-13", "Intersection": "NORMANDY AVE", "Owner": "City", "last_edited_date": "2023-02-16", "Street_ID": "774", "Pole_Num": "13"}},{"geometry": {"type": "Point", "coordinates": [-71.15452009272971, 42.393979283280544]}, "type": "Feature", "id": 12, "properties": {"PoleID": "789-4", "Neighborhood": 12.0, "Description": "Cobrahead", "FixtureType": "A3", "NumLamps": 1, "EditDate": "2014", "StreetSuffix": "TER", "LEDchk": "Yes", "StreetName": "NORMANDY", "Lamp1": "789-4", "Intersection": "NORMANDY TER", "Owner": "City", "last_edited_date": "2023-02-16", "Street_ID": "789", "Pole_Num": "4"}},{"geometry": {"type": "Point", "coordinates": [-71.12650070391338, 42.39341593206793]}, "type": "Feature", "id": 13, "properties": {"PoleID": "341-2", "Neighborhood": 11.0, "Description": "Cobrahead", "FixtureType": "A3", "NumLamps": 1, "EditDate": "2014", "StreetSuffix": "ST", "LEDchk": "Yes", "StreetName": "HASKELL", "Lamp1": "341-2", "Intersection": "HASKELL ST", "Owner": "City", "last_edited_date": "2023-02-16", "Street_ID": "341", "Pole_Num": "2"}},{"geometry": {"type": "Point", "coordinates": [-71.15559225456946, 42.39350453121423]}, "type": "Feature", "id": 14, "properties": {"PoleID": "317-23", "Neighborhood": 12.0, "Description": "Cobrahead", "FixtureType": "A3", "NumLamps": 1, "EditDate": "2014", "StreetSuffix": "ST", "LEDchk": "Yes", "StreetName": "GRISWOLD", "Lamp1": "317-23", "Intersection": "LOOMIS ST", "Owner": "City", "last_edited_date": "2023-02-16", "Street_ID": "317", "Pole_Num": "23"}},{"geometry": {"type": "Point", "coordinates": [-71.13708128564622, 42.39347376563719]}, "type": "Feature", "id": 15, "properties": {"PoleID": "587-58", "Neighborhood": 11.0, "Description": "Cobrahead", "FixtureType": "A3", "NumLamps": 1, "EditDate": "2014", "StreetSuffix": "AVE", "LEDchk": "Yes", "StreetName": "RINDGE", "Lamp1": "587-58", "Intersection": "RINDGE AVE", "Owner": "City", "last_edited_date": "2023-02-16", "Street_ID": "587", "Pole_Num": "58"}},{"geometry": {"type": "Point", "coordinates": [-71.13196943795084, 42.39328836553105]}, "type": "Feature", "id": 16, "properties": {"PoleID": "619-0", "Neighborhood": 11.0, "Description": "Cobrahead", "FixtureType": "A3", "NumLamps": 1, "EditDate": "2014", "StreetSuffix": "ST", "LEDchk": "Yes", "StreetName": "SARGENT", "Lamp1": "619-0", "Intersection": "SARGENT ST", "Owner": "City", "last_edited_date": "2023-02-16", "Street_ID": "619", "Pole_Num": "0"}},{"geometry": {"type": "Point", "coordinates": [-71.15722970737862, 42.393285513985646]}, "type": "Feature", "id": 17, "properties": {"PoleID": "788-3", "Neighborhood": 12.0, "Description": "Cobrahead", "FixtureType": "A3", "NumLamps": 1, "EditDate": "2014", "StreetSuffix": "AVE", "LEDchk": "Yes", "StreetName": "SOUTH NORMANDY", "Lamp1": "788-3", "Intersection": "SUNSET RD", "Owner": "City", "last_edited_date": "2023-02-16", "Street_ID": "788", "Pole_Num": "3"}},{"geometry": {"type": "Point", "coordinates": [-71.13709387056022, 42.39328654178361]}, "type": "Feature", "id": 18, "properties": {"PoleID": "587-60", "Neighborhood": 11.0, "Description": "Cobrahead", "FixtureType": "A3", "NumLamps": 1, "EditDate": "2014", "StreetSuffix": "AVE", "LEDchk": "Yes", "StreetName": "RINDGE", "Lamp1": "587-60", "Intersection": "RINDGE AVE", "Owner": "City", "last_edited_date": "2023-02-16", "Street_ID": "587", "Pole_Num": "60"}},{"geometry": {"type": "Point", "coordinates": [-71.15760631707042, 42.39315127111301]}, "type": "Feature", "id": 19, "properties": {"PoleID": "788-1", "Neighborhood": 12.0, "Description": "Cobrahead", "FixtureType": "A3", "NumLamps": 1, "EditDate": "2014", "StreetSuffix": "AVE", "LEDchk": "Yes", "StreetName": "SOUTH NORMANDY", "Lamp1": "788-1", "Intersection": "SOUTH NORMANDY AVE", "Owner": "City", "last_edited_date": "2023-02-16", "Street_ID": "788", "Pole_Num": "1"}},{"geometry": {"type": "Point", "coordinates": [-71.13710889217332, 42.393104537323794]}, "type": "Feature", "id": 20, "properties": {"PoleID": "587-62", "Neighborhood": 11.0, "Description": "Cobrahead", "FixtureType": "A3", "NumLamps": 1, "EditDate": "2014", "StreetSuffix": "AVE", "LEDchk": "Yes", "StreetName": "RINDGE", "Lamp1": "587-62", "Intersection": "RINDGE AVE", "Owner": "City", "last_edited_date": "2023-02-16", "Street_ID": "587", "Pole_Num": "62"}},{"geometry": {"type": "Point", "coordinates": [-71.12446280165922, 42.392408137309594]}, "type": "Feature", "id": 21, "properties": {"PoleID": "471-244", "Neighborhood": 11.0, "Description": "Cobrahead", "FixtureType": "A1", "NumLamps": 1, "EditDate": "2014", "StreetSuffix": "AVE", "LEDchk": "Yes", "StreetName": "MASSACHUSETTS", "Lamp1": "471-244", "Intersection": "MASSACHUSETTS AVE", "Owner": "City", "last_edited_date": "2023-02-16", "Street_ID": "471", "Pole_Num": "244"}},{"geometry": {"type": "Point", "coordinates": [-71.13276336108856, 42.39236895423468]}, "type": "Feature", "id": 22, "properties": {"PoleID": "632-61", "Neighborhood": 11.0, "Description": "Cobrahead", "FixtureType": "A2", "NumLamps": 1, "EditDate": "2014", "StreetSuffix": "ST", "LEDchk": "Yes", "StreetName": "SHERMAN", "Lamp1": "632-61", "Intersection": "SHERMAN ST", "Owner": "City", "last_edited_date": "2023-02-16", "Street_ID": "632", "Pole_Num": "61"}},{"geometry": {"type": "Point", "coordinates": [-71.129207187316, 42.39220700862441]}, "type": "Feature", "id": 23, "properties": {"PoleID": "752-5", "Neighborhood": 11.0, "Description": "Cobrahead", "FixtureType": "A3", "NumLamps": 1, "EditDate": "2014", "StreetSuffix": "RD", "LEDchk": "Yes", "StreetName": "YERXA", "Lamp1": "752-5", "Intersection": "YERXA RD", "Owner": "City", "last_edited_date": "2023-02-16", "Street_ID": "752", "Pole_Num": "5"}},{"geometry": {"type": "Point", "coordinates": [-71.12340611892569, 42.39157842537338]}, "type": "Feature", "id": 24, "properties": {"PoleID": "471-236", "Neighborhood": 11.0, "Description": "Cobrahead", "FixtureType": "A1", "NumLamps": 1, "EditDate": "2014", "StreetSuffix": "AVE", "LEDchk": "Yes", "StreetName": "MASSACHUSETTS", "Lamp1": "471-236", "Intersection": "MASSACHUSETTS AVE", "Owner": "City", "last_edited_date": "2023-02-16", "Street_ID": "471", "Pole_Num": "236"}},{"geometry": {"type": "Point", "coordinates": [-71.12591260108643, 42.39136747940595]}, "type": "Feature", "id": 25, "properties": {"PoleID": "541-8", "Neighborhood": 11.0, "Description": "Cobrahead", "FixtureType": "A3", "NumLamps": 1, "EditDate": "2014", "StreetSuffix": "ST", "LEDchk": "Yes", "StreetName": "PEMBERTON", "Lamp1": "541-8", "Intersection": "PEMBERTON ST", "Owner": "City", "last_edited_date": "2023-02-16", "Street_ID": "541", "Pole_Num": "8"}},{"geometry": {"type": "Point", "coordinates": [-71.12001415396318, 42.390893279755254]}, "type": "Feature", "id": 26, "properties": {"PoleID": "54-3", "Neighborhood": 11.0, "Description": "Cobrahead", "FixtureType": "A2", "NumLamps": 1, "EditDate": "2014", "StreetSuffix": "ST", "LEDchk": "Yes", "StreetName": "BEECH", "Lamp1": "54-3", "Intersection": "ORCHARD ST", "Owner": "City", "last_edited_date": "2023-02-16", "Street_ID": "54", "Pole_Num": "3"}},{"geometry": {"type": "Point", "coordinates": [-71.15662573209164, 42.390944125077326]}, "type": "Feature", "id": 27, "properties": {"PoleID": "170-143", "Neighborhood": 12.0, "Description": "Cobrahead", "FixtureType": "A2", "NumLamps": 1, "EditDate": "2014", "StreetSuffix": "AVE", "LEDchk": "Yes", "StreetName": "CONCORD", "Lamp1": "170-143", "Intersection": "CONCORD AVE", "Owner": "City", "last_edited_date": "2023-02-16", "Street_ID": "170", "Pole_Num": "143"}},{"geometry": {"type": "Point", "coordinates": [-71.15085598075552, 42.39090457337676]}, "type": "Feature", "id": 28, "properties": {"PoleID": "640-6", "Neighborhood": 12.0, "Description": "Cobrahead", "FixtureType": "A3", "NumLamps": 1, "EditDate": "2014", "StreetSuffix": "PL", "LEDchk": "Yes", "StreetName": "SMITH", "Lamp1": "640-6", "Intersection": "SMITH PL", "Owner": "City", "last_edited_date": "2023-02-16", "Street_ID": "640", "Pole_Num": "6"}},{"geometry": {"type": "Point", "coordinates": [-71.12033571723094, 42.390673560845244]}, "type": "Feature", "id": 29, "properties": {"PoleID": "54-1", "Neighborhood": 11.0, "Description": "Cobrahead", "FixtureType": "A2", "NumLamps": 1, "EditDate": "2014", "StreetSuffix": "ST", "LEDchk": "Yes", "StreetName": "BEECH", "Lamp1": "54-1", "Intersection": "BEECH ST", "Owner": "City", "last_edited_date": "2023-02-16", "Street_ID": "54", "Pole_Num": "1"}},{"geometry": {"type": "Point", "coordinates": [-71.15710704743411, 42.39072372079555]}, "type": "Feature", "id": 30, "properties": {"PoleID": "170-148", "Neighborhood": 12.0, "Description": "Cobrahead", "FixtureType": "A2", "NumLamps": 1, "EditDate": "2014", "StreetSuffix": "AVE", "LEDchk": "Yes", "StreetName": "CONCORD", "Lamp1": "170-148", "Intersection": "BLANCHARD RD", "Owner": "City", "last_edited_date": "2023-02-16", "Street_ID": "170", "Pole_Num": "148"}},{"geometry": {"type": "Point", "coordinates": [-71.14783800983469, 42.39049503371257]}, "type": "Feature", "id": 31, "properties": {"PoleID": "796-6", "Neighborhood": 12.0, "Description": "Cobrahead", "FixtureType": "A3", "NumLamps": 1, "EditDate": "2014", "StreetSuffix": "AVE", "LEDchk": "Yes", "StreetName": "MOULTON", "Lamp1": "796-6", "Intersection": "MOULTON AVE", "Owner": "City", "last_edited_date": "2023-02-16", "Street_ID": "796", "Pole_Num": "6"}},{"geometry": {"type": "Point", "coordinates": [-71.13097485806864, 42.39000837198311]}, "type": "Feature", "id": 32, "properties": {"PoleID": "81-22", "Neighborhood": 9.0, "Description": "Cobrahead", "FixtureType": "A3", "NumLamps": 1, "EditDate": "2014", "StreetSuffix": "ST", "LEDchk": "Yes", "StreetName": "BOLTON", "Lamp1": "81-22", "Intersection": "BOLTON ST", "Owner": "City", "last_edited_date": "2023-02-16", "Street_ID": "81", "Pole_Num": "22"}},{"geometry": {"type": "Point", "coordinates": [-71.13060992366817, 42.38986302828359]}, "type": "Feature", "id": 33, "properties": {"PoleID": "81-23", "Neighborhood": 9.0, "Description": "Cobrahead", "FixtureType": "A3", "NumLamps": 1, "EditDate": "2014", "StreetSuffix": "ST", "LEDchk": "Yes", "StreetName": "BOLTON", "Lamp1": "81-23", "Intersection": "BOLTON ST", "Owner": "City", "last_edited_date": "2023-02-16", "Street_ID": "81", "Pole_Num": "23"}},{"geometry": {"type": "Point", "coordinates": [-71.14421805618184, 42.38958157595718]}, "type": "Feature", "id": 34, "properties": {"PoleID": "741-5", "Neighborhood": 12.0, "Description": "Cobrahead", "FixtureType": "A3", "NumLamps": 1, "EditDate": "2014", "StreetSuffix": "ST", "LEDchk": "Yes", "StreetName": "WHEELER", "Lamp1": "741-5", "Intersection": "WHEELER ST", "Owner": "City", "last_edited_date": "2023-02-16", "Street_ID": "741", "Pole_Num": "5"}},{"geometry": {"type": "Point", "coordinates": [-71.14419481889912, 42.38919906693779]}, "type": "Feature", "id": 35, "properties": {"PoleID": "741-1", "Neighborhood": 12.0, "Description": "Cobrahead", "FixtureType": "A3", "NumLamps": 1, "EditDate": "2014", "StreetSuffix": "ST", "LEDchk": "Yes", "StreetName": "WHEELER", "Lamp1": "741-1", "Intersection": "WHEELER ST", "Owner": "City", "last_edited_date": "2023-02-16", "Street_ID": "741", "Pole_Num": "1"}},{"geometry": {"type": "Point", "coordinates": [-71.14147746603902, 42.38849071452687]}, "type": "Feature", "id": 36, "properties": {"PoleID": "764-8", "Neighborhood": 12.0, "Description": "Cobrahead", "FixtureType": "A3", "NumLamps": 1, "EditDate": "2014", "StreetSuffix": "LN", "LEDchk": "Yes", "StreetName": "CONCORD", "Lamp1": "764-8", "Intersection": "CONCORD LN", "Owner": "City", "last_edited_date": "2023-02-16", "Street_ID": "764", "Pole_Num": "8"}},{"geometry": {"type": "Point", "coordinates": [-71.11917230302396, 42.388527911339224]}, "type": "Feature", "id": 37, "properties": {"PoleID": "471-208.5", "Neighborhood": 11.0, "Description": "Cobrahead", "FixtureType": "A2", "NumLamps": 1, "EditDate": "2014", "StreetSuffix": "AVE", "LEDchk": "Yes", "StreetName": "MASSACHUSETTS", "Lamp1": "471-208.5", "Intersection": "MASSACHUSETTS AVE", "Owner": "City", "last_edited_date": "2023-02-16", "Street_ID": "471", "Pole_Num": "208.5"}},{"geometry": {"type": "Point", "coordinates": [-71.1237574384153, 42.388376541013166]}, "type": "Feature", "id": 38, "properties": {"PoleID": "353-3", "Neighborhood": 9.0, "Description": "Cobrahead", "FixtureType": "A3", "NumLamps": 1, "EditDate": "2014", "StreetSuffix": "ST", "LEDchk": "Yes", "StreetName": "HERBERT", "Lamp1": "353-3", "Intersection": "HERBERT ST", "Owner": "City", "last_edited_date": "2023-02-16", "Street_ID": "353", "Pole_Num": "3"}},{"geometry": {"type": "Point", "coordinates": [-71.12554084934733, 42.3882981240443]}, "type": "Feature", "id": 39, "properties": {"PoleID": "697-23", "Neighborhood": 9.0, "Description": "Cobrahead", "FixtureType": "A2", "NumLamps": 1, "EditDate": "2014", "StreetSuffix": "ST", "LEDchk": "Yes", "StreetName": "WALDEN", "Lamp1": "697-23", "Intersection": "HUBBARD ST", "Owner": "City", "last_edited_date": "2023-02-16", "Street_ID": "697", "Pole_Num": "23"}},{"geometry": {"type": "Point", "coordinates": [-71.12418787574595, 42.38775746668467]}, "type": "Feature", "id": 40, "properties": {"PoleID": "114-12", "Neighborhood": 9.0, "Description": "Cobrahead", "FixtureType": "A3", "NumLamps": 1, "EditDate": "2014", "StreetSuffix": "TER", "LEDchk": "Yes", "StreetName": "CAMBRIDGE", "Lamp1": "114-12", "Intersection": "CAMBRIDGE TER", "Owner": "City", "last_edited_date": "2023-02-16", "Street_ID": "114", "Pole_Num": "12"}},{"geometry": {"type": "Point", "coordinates": [-71.13794533481179, 42.38730655994395]}, "type": "Feature", "id": 41, "properties": {"PoleID": "261-21", "Neighborhood": 9.0, "Description": "Cobrahead", "FixtureType": "A2", "NumLamps": 1, "EditDate": "2014", "StreetSuffix": "ST", "LEDchk": "Yes", "StreetName": "FIELD", "Lamp1": "261-21", "Intersection": "FERN ST", "Owner": "City", "last_edited_date": "2023-02-16", "Street_ID": "261", "Pole_Num": "21"}},{"geometry": {"type": "Point", "coordinates": [-71.11885182221533, 42.38684763329156]}, "type": "Feature", "id": 42, "properties": {"PoleID": "609-2", "Neighborhood": 8.0, "Description": "Cobrahead", "FixtureType": "A2", "NumLamps": 1, "EditDate": "2014", "StreetSuffix": "ST", "LEDchk": "Yes", "StreetName": "ROSELAND", "Lamp1": "609-2", "Intersection": "ROSELAND ST", "Owner": "City", "last_edited_date": "2023-02-16", "Street_ID": "609", "Pole_Num": "2"}},{"geometry": {"type": "Point", "coordinates": [-71.13740673753753, 42.38684941360939]}, "type": "Feature", "id": 43, "properties": {"PoleID": "261-17", "Neighborhood": 9.0, "Description": "Cobrahead", "FixtureType": "A2", "NumLamps": 1, "EditDate": "2014", "StreetSuffix": "ST", "LEDchk": "Yes", "StreetName": "FIELD", "Lamp1": "261-17", "Intersection": "FIELD ST", "Owner": "City", "last_edited_date": "2023-02-16", "Street_ID": "261", "Pole_Num": "17"}},{"geometry": {"type": "Point", "coordinates": [-71.1291198188105, 42.38678369444804]}, "type": "Feature", "id": 44, "properties": {"PoleID": "697-42", "Neighborhood": 9.0, "Description": "Cobrahead", "FixtureType": "A2", "NumLamps": 1, "EditDate": "2014", "StreetSuffix": "ST", "LEDchk": "Yes", "StreetName": "WALDEN", "Lamp1": "697-42", "Intersection": "WALDEN ST", "Owner": "City", "last_edited_date": "2023-02-16", "Street_ID": "697", "Pole_Num": "42"}},{"geometry": {"type": "Point", "coordinates": [-71.11708375024486, 42.38665606064582]}, "type": "Feature", "id": 45, "properties": {"PoleID": "609-11", "Neighborhood": 8.0, "Description": "Cobrahead", "FixtureType": "A2", "NumLamps": 1, "EditDate": "2014", "StreetSuffix": "ST", "LEDchk": "Yes", "StreetName": "ROSELAND", "Lamp1": "609-11", "Intersection": "ROSELAND ST", "Owner": "City", "last_edited_date": "2023-02-16", "Street_ID": "609", "Pole_Num": "11"}},{"geometry": {"type": "Point", "coordinates": [-71.11942470394747, 42.38651605626664]}, "type": "Feature", "id": 46, "properties": {"PoleID": "23-2", "Neighborhood": 9.0, "Description": "Cobrahead", "FixtureType": "A3", "NumLamps": 1, "EditDate": "2014", "StreetSuffix": "ST", "LEDchk": "Yes", "StreetName": "ARLINGTON", "Lamp1": "23-2", "Intersection": "MASSACHUSETTS AVE", "Owner": "City", "last_edited_date": "2023-02-16", "Street_ID": "23", "Pole_Num": "2"}},{"geometry": {"type": "Point", "coordinates": [-71.13614289006966, 42.38636345025431]}, "type": "Feature", "id": 47, "properties": {"PoleID": "293-107", "Neighborhood": 9.0, "Description": "Cobrahead", "FixtureType": "A2", "NumLamps": 1, "EditDate": "2014", "StreetSuffix": "ST", "LEDchk": "Yes", "StreetName": "GARDEN", "Lamp1": "293-107", "Intersection": "GARDEN ST", "Owner": "City", "last_edited_date": "2023-02-16", "Street_ID": "293", "Pole_Num": "107"}},{"geometry": {"type": "Point", "coordinates": [-71.11909905986622, 42.38626203189044]}, "type": "Feature", "id": 48, "properties": {"PoleID": "471-200", "Neighborhood": 8.0, "Description": "Cobrahead", "FixtureType": "A1", "NumLamps": 1, "EditDate": "2014", "StreetSuffix": "AVE", "LEDchk": "Yes", "StreetName": "MASSACHUSETTS", "Lamp1": "471-200", "Intersection": "MASSACHUSETTS AVE", "Owner": "City", "last_edited_date": "2023-02-16", "Street_ID": "471", "Pole_Num": "200"}},{"geometry": {"type": "Point", "coordinates": [-71.12950612841502, 42.386070435260585]}, "type": "Feature", "id": 49, "properties": {"PoleID": "652-14", "Neighborhood": 9.0, "Description": "Cobrahead", "FixtureType": "A3", "NumLamps": 1, "EditDate": "2014", "StreetSuffix": "ST", "LEDchk": "Yes", "StreetName": "STEARNS", "Lamp1": "652-14", "Intersection": "ESTEN ST", "Owner": "City", "last_edited_date": "2023-02-16", "Street_ID": "652", "Pole_Num": "14"}},{"geometry": {"type": "Point", "coordinates": [-71.13129570319555, 42.38598483780949]}, "type": "Feature", "id": 50, "properties": {"PoleID": "697-54", "Neighborhood": 9.0, "Description": "Cobrahead", "FixtureType": "A2", "NumLamps": 1, "EditDate": "2014", "StreetSuffix": "ST", "LEDchk": "Yes", "StreetName": "WALDEN", "Lamp1": "697-54", "Intersection": "WALDEN ST", "Owner": "City", "last_edited_date": "2023-02-16", "Street_ID": "697", "Pole_Num": "54"}},{"geometry": {"type": "Point", "coordinates": [-71.12106617743785, 42.385694720083634]}, "type": "Feature", "id": 51, "properties": {"PoleID": "421-7", "Neighborhood": 9.0, "Description": "Cobrahead", "FixtureType": "A3", "NumLamps": 1, "EditDate": "2014", "StreetSuffix": "ST", "LEDchk": "Yes", "StreetName": "LANCASTER", "Lamp1": "421-7", "Intersection": "LANCASTER ST", "Owner": "City", "last_edited_date": "2023-02-16", "Street_ID": "421", "Pole_Num": "7"}},{"geometry": {"type": "Point", "coordinates": [-71.13723145179202, 42.385416990190805]}, "type": "Feature", "id": 52, "properties": {"PoleID": "11-14", "Neighborhood": 9.0, "Description": "Cobrahead", "FixtureType": "A3", "NumLamps": 1, "EditDate": "2014", "StreetSuffix": "ST", "LEDchk": "Yes", "StreetName": "ALPINE", "Lamp1": "11-14", "Intersection": "ALPINE ST", "Owner": "City", "last_edited_date": "2023-02-16", "Street_ID": "11", "Pole_Num": "14"}},{"geometry": {"type": "Point", "coordinates": [-71.11920933605289, 42.38528793893503]}, "type": "Feature", "id": 53, "properties": {"PoleID": "471-196.5", "Neighborhood": 8.0, "Description": "Cobrahead", "FixtureType": "A1", "NumLamps": 1, "EditDate": "2014", "StreetSuffix": "AVE", "LEDchk": "Yes", "StreetName": "MASSACHUSETTS", "Lamp1": "471-196.5", "Intersection": "FOREST ST", "Owner": "City", "last_edited_date": "2023-02-16", "Street_ID": "471", "Pole_Num": "196.5"}},{"geometry": {"type": "Point", "coordinates": [-71.1374433847466, 42.38526181234033]}, "type": "Feature", "id": 54, "properties": {"PoleID": "170-68", "Neighborhood": 9.0, "Description": "Cobrahead", "FixtureType": "A2", "NumLamps": 1, "EditDate": "2014", "StreetSuffix": "AVE", "LEDchk": "Yes", "StreetName": "CONCORD", "Lamp1": "170-68", "Intersection": "ALPINE ST", "Owner": "City", "last_edited_date": "2023-02-16", "Street_ID": "170", "Pole_Num": "68"}},{"geometry": {"type": "Point", "coordinates": [-71.12740283610067, 42.38487610873396]}, "type": "Feature", "id": 55, "properties": {"PoleID": "386-8", "Neighborhood": 9.0, "Description": "Cobrahead", "FixtureType": "A3", "NumLamps": 1, "EditDate": "2014", "StreetSuffix": "AVE", "LEDchk": "Yes", "StreetName": "HURON", "Lamp1": "386-8", "Intersection": "HURON AVE", "Owner": "City", "last_edited_date": "2023-02-16", "Street_ID": "386", "Pole_Num": "8"}},{"geometry": {"type": "Point", "coordinates": [-71.12428372762763, 42.38446773738281]}, "type": "Feature", "id": 56, "properties": {"PoleID": "39-8", "Neighborhood": 9.0, "Description": "Cobrahead", "FixtureType": "A3", "NumLamps": 1, "EditDate": "2014", "StreetSuffix": "ST", "LEDchk": "Yes", "StreetName": "AVON HILL", "Lamp1": "39-8", "Intersection": "BATES ST", "Owner": "City", "last_edited_date": "2023-02-16", "Street_ID": "39", "Pole_Num": "8"}},{"geometry": {"type": "Point", "coordinates": [-71.11827589938508, 42.38442266717239]}, "type": "Feature", "id": 57, "properties": {"PoleID": "564-6", "Neighborhood": 8.0, "Description": "Cobrahead", "FixtureType": "A2", "NumLamps": 1, "EditDate": "2014", "StreetSuffix": "ST", "LEDchk": "Yes", "StreetName": "PRENTISS", "Lamp1": "564-6", "Intersection": "PRENTISS ST", "Owner": "City", "last_edited_date": "2023-02-16", "Street_ID": "564", "Pole_Num": "6"}},{"geometry": {"type": "Point", "coordinates": [-71.13544224414508, 42.38437924604788]}, "type": "Feature", "id": 58, "properties": {"PoleID": "170-60", "Neighborhood": 9.0, "Description": "Cobrahead", "FixtureType": "A2", "NumLamps": 1, "EditDate": "2014", "StreetSuffix": "AVE", "LEDchk": "Yes", "StreetName": "CONCORD", "Lamp1": "170-60", "Intersection": "CONCORD AVE", "Owner": "City", "last_edited_date": "2023-02-16", "Street_ID": "170", "Pole_Num": "60"}},{"geometry": {"type": "Point", "coordinates": [-71.14125106527116, 42.38439087102626]}, "type": "Feature", "id": 59, "properties": {"PoleID": "417-46", "Neighborhood": 10.0, "Description": "Cobrahead", "FixtureType": "A2", "NumLamps": 1, "EditDate": "2014", "StreetSuffix": "AVE", "LEDchk": "Yes", "StreetName": "LAKEVIEW", "Lamp1": "417-46", "Intersection": "VASSAL LN", "Owner": "City", "last_edited_date": "2023-02-16", "Street_ID": "417", "Pole_Num": "46"}},{"geometry": {"type": "Point", "coordinates": [-71.12994581516962, 42.384045299276224]}, "type": "Feature", "id": 60, "properties": {"PoleID": "293-72", "Neighborhood": 9.0, "Description": "Cobrahead", "FixtureType": "A2", "NumLamps": 1, "EditDate": "2014", "StreetSuffix": "ST", "LEDchk": "Yes", "StreetName": "GARDEN", "Lamp1": "293-72", "Intersection": "GARDEN ST", "Owner": "City", "last_edited_date": "2023-02-16", "Street_ID": "293", "Pole_Num": "72"}},{"geometry": {"type": "Point", "coordinates": [-71.12391458644116, 42.38384502701157]}, "type": "Feature", "id": 61, "properties": {"PoleID": "39-4", "Neighborhood": 9.0, "Description": "Cobrahead", "FixtureType": "A3", "NumLamps": 1, "EditDate": "2014", "StreetSuffix": "ST", "LEDchk": "Yes", "StreetName": "AVON HILL", "Lamp1": "39-4", "Intersection": "AVON HILL ST", "Owner": "City", "last_edited_date": "2023-02-16", "Street_ID": "39", "Pole_Num": "4"}},{"geometry": {"type": "Point", "coordinates": [-71.13396646671787, 42.38382853154321]}, "type": "Feature", "id": 62, "properties": {"PoleID": "170-55", "Neighborhood": 9.0, "Description": "Cobrahead", "FixtureType": "A2", "NumLamps": 1, "EditDate": "2014", "StreetSuffix": "AVE", "LEDchk": "Yes", "StreetName": "CONCORD", "Lamp1": "170-55", "Intersection": "WALDEN ST", "Owner": "City", "last_edited_date": "2023-02-16", "Street_ID": "170", "Pole_Num": "55"}},{"geometry": {"type": "Point", "coordinates": [-71.13077931692183, 42.38378689989934]}, "type": "Feature", "id": 63, "properties": {"PoleID": "522-6", "Neighborhood": 9.0, "Description": "Cobrahead", "FixtureType": "A3", "NumLamps": 1, "EditDate": "2014", "StreetSuffix": "ST", "LEDchk": "Yes", "StreetName": "TIERNEY", "Lamp1": "522-6", "Intersection": "TIERNEY ST", "Owner": "City", "last_edited_date": "2023-02-16", "Street_ID": "522", "Pole_Num": "6"}},{"geometry": {"type": "Point", "coordinates": [-71.11579195016624, 42.38363403877441]}, "type": "Feature", "id": 64, "properties": {"PoleID": "243-0", "Neighborhood": 8.0, "Description": "Cobrahead", "FixtureType": "A3", "NumLamps": 1, "EditDate": "2014", "StreetSuffix": "ST", "LEDchk": "Yes", "StreetName": "EUSTIS", "Lamp1": "243-0", "Intersection": "EUSTIS ST", "Owner": "City", "last_edited_date": "2023-02-16", "Street_ID": "243", "Pole_Num": "0"}},{"geometry": {"type": "Point", "coordinates": [-71.11548699756976, 42.38360710356855]}, "type": "Feature", "id": 65, "properties": {"PoleID": "243-2", "Neighborhood": 8.0, "Description": "Cobrahead", "FixtureType": "A3", "NumLamps": 1, "EditDate": "2014", "StreetSuffix": "ST", "LEDchk": "Yes", "StreetName": "EUSTIS", "Lamp1": "243-2", "Intersection": "EUSTIS ST", "Owner": "City", "last_edited_date": "2023-02-16", "Street_ID": "243", "Pole_Num": "2"}},{"geometry": {"type": "Point", "coordinates": [-71.11637391497773, 42.38359982178479]}, "type": "Feature", "id": 66, "properties": {"PoleID": "296-15", "Neighborhood": 8.0, "Description": "Cobrahead", "FixtureType": "A3", "NumLamps": 1, "EditDate": "2014", "StreetSuffix": "ST", "LEDchk": "Yes", "StreetName": "GARFIELD", "Lamp1": "296-15", "Intersection": "GARFIELD ST", "Owner": "City", "last_edited_date": "2023-02-16", "Street_ID": "296", "Pole_Num": "15"}},{"geometry": {"type": "Point", "coordinates": [-71.12377911038188, 42.3836116072679]}, "type": "Feature", "id": 67, "properties": {"PoleID": "39-2", "Neighborhood": 9.0, "Description": "Cobrahead", "FixtureType": "A3", "NumLamps": 1, "EditDate": "2014", "StreetSuffix": "ST", "LEDchk": "Yes", "StreetName": "AVON HILL", "Lamp1": "39-2", "Intersection": "AVON HILL ST", "Owner": "City", "last_edited_date": "2023-02-16", "Street_ID": "39", "Pole_Num": "2"}},{"geometry": {"type": "Point", "coordinates": [-71.11616797374006, 42.38357189866793]}, "type": "Feature", "id": 68, "properties": {"PoleID": "528-20", "Neighborhood": 8.0, "Description": "Cobrahead", "FixtureType": "A2", "NumLamps": 1, "EditDate": "2014", "StreetSuffix": "ST", "LEDchk": "Yes", "StreetName": "OXFORD", "Lamp1": "528-20", "Intersection": "SACRAMENTOST", "Owner": "City", "last_edited_date": "2023-02-16", "Street_ID": "528", "Pole_Num": "20"}},{"geometry": {"type": "Point", "coordinates": [-71.13298943218805, 42.383387033108264]}, "type": "Feature", "id": 69, "properties": {"PoleID": "170-51", "Neighborhood": 9.0, "Description": "Cobrahead", "FixtureType": "A2", "NumLamps": 1, "EditDate": "2014", "StreetSuffix": "AVE", "LEDchk": "Yes", "StreetName": "CONCORD", "Lamp1": "170-51", "Intersection": "DONNELL ST", "Owner": "City", "last_edited_date": "2023-02-16", "Street_ID": "170", "Pole_Num": "51"}},{"geometry": {"type": "Point", "coordinates": [-71.12506115928359, 42.38329241828479]}, "type": "Feature", "id": 70, "properties": {"PoleID": "575-3", "Neighborhood": 9.0, "Description": "Cobrahead", "FixtureType": "A2", "NumLamps": 1, "EditDate": "2014", "StreetSuffix": "ST", "LEDchk": "Yes", "StreetName": "RAYMOND", "Lamp1": "575-3", "Intersection": "RAYMOND ST", "Owner": "City", "last_edited_date": "2023-02-16", "Street_ID": "575", "Pole_Num": "3"}},{"geometry": {"type": "Point", "coordinates": [-71.12868902744137, 42.3831102352113]}, "type": "Feature", "id": 71, "properties": {"PoleID": "769-2", "Neighborhood": 9.0, "Description": "Cobrahead", "FixtureType": "A3", "NumLamps": 1, "EditDate": "2014", "StreetSuffix": "WEST", "LEDchk": "Yes", "StreetName": "GRAY GARDENS", "Lamp1": "769-2", "Intersection": "GRAY GARDENS WEST", "Owner": "City", "last_edited_date": "2023-02-16", "Street_ID": "769", "Pole_Num": "2"}},{"geometry": {"type": "Point", "coordinates": [-71.12419121460914, 42.3832796615412]}, "type": "Feature", "id": 72, "properties": {"PoleID": "442-13", "Neighborhood": 9.0, "Description": "Cobrahead", "FixtureType": "A2", "NumLamps": 1, "EditDate": "2014", "StreetSuffix": "ST", "LEDchk": "Yes", "StreetName": "LINNAEAN", "Lamp1": "442-13", "Intersection": "LINNAEAN ST", "Owner": "City", "last_edited_date": "2023-02-16", "Street_ID": "442", "Pole_Num": "13"}},{"geometry": {"type": "Point", "coordinates": [-71.12492261714314, 42.38305416166209]}, "type": "Feature", "id": 73, "properties": {"PoleID": "575-1", "Neighborhood": 9.0, "Description": "Cobrahead", "FixtureType": "A2", "NumLamps": 1, "EditDate": "2014", "StreetSuffix": "ST", "LEDchk": "Yes", "StreetName": "RAYMOND", "Lamp1": "575-1", "Intersection": "RAYMOND ST", "Owner": "City", "last_edited_date": "2023-02-16", "Street_ID": "575", "Pole_Num": "1"}},{"geometry": {"type": "Point", "coordinates": [-71.11432926198634, 42.38301307878946]}, "type": "Feature", "id": 74, "properties": {"PoleID": "184-6", "Neighborhood": 8.0, "Description": "Cobrahead", "FixtureType": "A3", "NumLamps": 1, "EditDate": "2014", "StreetSuffix": "ST", "LEDchk": "Yes", "StreetName": "CRESCENT", "Lamp1": "184-6", "Intersection": "CRESCENT ST", "Owner": "City", "last_edited_date": "2023-02-16", "Street_ID": "184", "Pole_Num": "6"}},{"geometry": {"type": "Point", "coordinates": [-71.1159576690594, 42.383002977188745]}, "type": "Feature", "id": 75, "properties": {"PoleID": "184-0", "Neighborhood": 8.0, "Description": "Cobrahead", "FixtureType": "A3", "NumLamps": 1, "EditDate": "2014", "StreetSuffix": "ST", "LEDchk": "Yes", "StreetName": "CRESCENT", "Lamp1": "184-0", "Intersection": "OXFORD ST", "Owner": "City", "last_edited_date": "2023-02-16", "Street_ID": "184", "Pole_Num": "0"}},{"geometry": {"type": "Point", "coordinates": [-71.115585879871, 42.38299073769422]}, "type": "Feature", "id": 76, "properties": {"PoleID": "184-1", "Neighborhood": 8.0, "Description": "Cobrahead", "FixtureType": "A3", "NumLamps": 1, "EditDate": "2014", "StreetSuffix": "ST", "LEDchk": "Yes", "StreetName": "CRESCENT", "Lamp1": "184-1", "Intersection": "CRESCENT ST", "Owner": "City", "last_edited_date": "2023-02-16", "Street_ID": "184", "Pole_Num": "1"}},{"geometry": {"type": "Point", "coordinates": [-71.12134496920936, 42.38283775794373]}, "type": "Feature", "id": 77, "properties": {"PoleID": "468-10", "Neighborhood": 9.0, "Description": "Cobrahead", "FixtureType": "A3", "NumLamps": 1, "EditDate": "2014", "StreetSuffix": "ST", "LEDchk": "Yes", "StreetName": "MARTIN", "Lamp1": "468-10", "Intersection": "MARTIN ST", "Owner": "City", "last_edited_date": "2023-02-16", "Street_ID": "468", "Pole_Num": "10"}},{"geometry": {"type": "Point", "coordinates": [-71.1129973639465, 42.38239261477151]}, "type": "Feature", "id": 78, "properties": {"PoleID": "122-7", "Neighborhood": 8.0, "Description": "Cobrahead", "FixtureType": "A3", "NumLamps": 1, "EditDate": "2014", "StreetSuffix": "ST", "LEDchk": "Yes", "StreetName": "CARVER", "Lamp1": "122-7", "Intersection": "CARVER ST", "Owner": "City", "last_edited_date": "2023-02-16", "Street_ID": "122", "Pole_Num": "7"}},{"geometry": {"type": "Point", "coordinates": [-71.1316435018721, 42.38266301487218]}, "type": "Feature", "id": 79, "properties": {"PoleID": "170-44", "Neighborhood": 9.0, "Description": "Cobrahead", "FixtureType": "A2", "NumLamps": 1, "EditDate": "2014", "StreetSuffix": "AVE", "LEDchk": "Yes", "StreetName": "CONCORD", "Lamp1": "170-44", "Intersection": "CONCORD AVE", "Owner": "City", "last_edited_date": "2023-02-16", "Street_ID": "170", "Pole_Num": "44"}},{"geometry": {"type": "Point", "coordinates": [-71.14271879218454, 42.38260034920731]}, "type": "Feature", "id": 80, "properties": {"PoleID": "759-5", "Neighborhood": 10.0, "Description": "Cobrahead", "FixtureType": "A3", "NumLamps": 1, "EditDate": "2014", "StreetSuffix": "RD", "LEDchk": "Yes", "StreetName": "POPLAR", "Lamp1": "759-5", "Intersection": "POPLAR RD", "Owner": "City", "last_edited_date": "2023-02-16", "Street_ID": "759", "Pole_Num": "5"}},{"geometry": {"type": "Point", "coordinates": [-71.12943769629807, 42.38252196671766]}, "type": "Feature", "id": 81, "properties": {"PoleID": "366-4", "Neighborhood": 9.0, "Description": "Cobrahead", "FixtureType": "A3", "NumLamps": 1, "EditDate": "2014", "StreetSuffix": "AVE", "LEDchk": "Yes", "StreetName": "HOLLY", "Lamp1": "366-4", "Intersection": "HOLLY AVE", "Owner": "City", "last_edited_date": "2023-02-16", "Street_ID": "366", "Pole_Num": "4"}},{"geometry": {"type": "Point", "coordinates": [-71.13329180168492, 42.38249304864391]}, "type": "Feature", "id": 82, "properties": {"PoleID": "22-2", "Neighborhood": 10.0, "Description": "Cobrahead", "FixtureType": "A3", "NumLamps": 1, "EditDate": "2014", "StreetSuffix": "TER", "LEDchk": "Yes", "StreetName": "APPLETON", "Lamp1": "22-2", "Intersection": "APPLETON ST", "Owner": "City", "last_edited_date": "2023-02-16", "Street_ID": "22", "Pole_Num": "2"}},{"geometry": {"type": "Point", "coordinates": [-71.11952660156794, 42.38232394555271]}, "type": "Feature", "id": 83, "properties": {"PoleID": "471-188", "Neighborhood": 8.0, "Description": "Cobrahead", "FixtureType": "A1", "NumLamps": 1, "EditDate": "2014", "StreetSuffix": "AVE", "LEDchk": "Yes", "StreetName": "MASSACHUSETTS", "Lamp1": "471-188", "Intersection": "MASSACHUSETTS AVE", "Owner": "City", "last_edited_date": "2023-02-16", "Street_ID": "471", "Pole_Num": "188"}},{"geometry": {"type": "Point", "coordinates": [-71.13978126775675, 42.38220811234171]}, "type": "Feature", "id": 84, "properties": {"PoleID": "417-32B", "Neighborhood": 10.0, "Description": "Cobrahead", "FixtureType": "A3", "NumLamps": 1, "EditDate": "2014", "StreetSuffix": "AVE", "LEDchk": "Yes", "StreetName": "LAKEVIEW", "Lamp1": "417-32B", "Intersection": "LAKEVIEW AVE", "Owner": "City", "last_edited_date": "2023-02-16", "Street_ID": "417", "Pole_Num": "32B"}},{"geometry": {"type": "Point", "coordinates": [-71.11957077064326, 42.381962213084975]}, "type": "Feature", "id": 85, "properties": {"PoleID": "471-186", "Neighborhood": 8.0, "Description": "Cobrahead", "FixtureType": "A1", "NumLamps": 1, "EditDate": "2014", "StreetSuffix": "AVE", "LEDchk": "Yes", "StreetName": "MASSACHUSETTS", "Lamp1": "471-186", "Intersection": "MASSACHUSETTS AVE", "Owner": "City", "last_edited_date": "2023-02-16", "Street_ID": "471", "Pole_Num": "186"}},{"geometry": {"type": "Point", "coordinates": [-71.13185644649695, 42.38187595053221]}, "type": "Feature", "id": 86, "properties": {"PoleID": "386-35", "Neighborhood": 10.0, "Description": "Cobrahead", "FixtureType": "A2", "NumLamps": 1, "EditDate": "2014", "StreetSuffix": "AVE", "LEDchk": "Yes", "StreetName": "HURON", "Lamp1": "386-35", "Intersection": "HURON AVE", "Owner": "City", "last_edited_date": "2023-02-16", "Street_ID": "386", "Pole_Num": "35"}},{"geometry": {"type": "Point", "coordinates": [-71.11254359195972, 42.38179905146266]}, "type": "Feature", "id": 87, "properties": {"PoleID": "122-4", "Neighborhood": 8.0, "Description": "Cobrahead", "FixtureType": "A3", "NumLamps": 1, "EditDate": "2014", "StreetSuffix": "ST", "LEDchk": "Yes", "StreetName": "CARVER", "Lamp1": "122-4", "Intersection": "CARVER ST", "Owner": "City", "last_edited_date": "2023-02-16", "Street_ID": "122", "Pole_Num": "4"}},{"geometry": {"type": "Point", "coordinates": [-71.12965280507812, 42.381822411750676]}, "type": "Feature", "id": 88, "properties": {"PoleID": "455-0", "Neighborhood": 9.0, "Description": "Cobrahead", "FixtureType": "A3", "NumLamps": 1, "EditDate": "2014", "StreetSuffix": "ST", "LEDchk": "Yes", "StreetName": "MADISON", "Lamp1": "455-0", "Intersection": "CONCORD AVE", "Owner": "City", "last_edited_date": "2023-02-16", "Street_ID": "455", "Pole_Num": "0"}},{"geometry": {"type": "Point", "coordinates": [-71.13566305065386, 42.381730626047435]}, "type": "Feature", "id": 89, "properties": {"PoleID": "581-27", "Neighborhood": 10.0, "Description": "Cobrahead", "FixtureType": "A2", "NumLamps": 1, "EditDate": "2014", "StreetSuffix": "ST", "LEDchk": "Yes", "StreetName": "RESERVOIR", "Lamp1": "581-27", "Intersection": "RESERVOIR ST", "Owner": "City", "last_edited_date": "2023-02-16", "Street_ID": "581", "Pole_Num": "27"}},{"geometry": {"type": "Point", "coordinates": [-71.11639508139947, 42.381484296314916]}, "type": "Feature", "id": 90, "properties": {"PoleID": "528-14", "Neighborhood": 8.0, "Description": "Cobrahead", "FixtureType": "A2", "NumLamps": 1, "EditDate": "2014", "StreetSuffix": "ST", "LEDchk": "Yes", "StreetName": "OXFORD", "Lamp1": "528-14", "Intersection": "WENDELL ST", "Owner": "City", "last_edited_date": "2023-02-16", "Street_ID": "528", "Pole_Num": "14"}},{"geometry": {"type": "Point", "coordinates": [-71.13808727024099, 42.38147310039951]}, "type": "Feature", "id": 91, "properties": {"PoleID": "149-1", "Neighborhood": 10.0, "Description": "Cobrahead", "FixtureType": "A3", "NumLamps": 1, "EditDate": "2014", "StreetSuffix": "ST", "LEDchk": "Yes", "StreetName": "CHILTON", "Lamp1": "149-1", "Intersection": "CHILTON ST", "Owner": "City", "last_edited_date": "2023-02-16", "Street_ID": "149", "Pole_Num": "1"}},{"geometry": {"type": "Point", "coordinates": [-71.13890346207668, 42.3813700097514]}, "type": "Feature", "id": 92, "properties": {"PoleID": "650-2", "Neighborhood": 10.0, "Description": "Cobrahead", "FixtureType": "A3", "NumLamps": 1, "EditDate": "2014", "StreetSuffix": "ST", "LEDchk": "Yes", "StreetName": "STANDISH", "Lamp1": "650-2", "Intersection": "STANDISH ST", "Owner": "City", "last_edited_date": "2023-02-16", "Street_ID": "650", "Pole_Num": "2"}},{"geometry": {"type": "Point", "coordinates": [-71.13871828541858, 42.38125688504585]}, "type": "Feature", "id": 93, "properties": {"PoleID": "386-69", "Neighborhood": 10.0, "Description": "Cobrahead", "FixtureType": "A2", "NumLamps": 1, "EditDate": "2014", "StreetSuffix": "AVE", "LEDchk": "Yes", "StreetName": "HURON", "Lamp1": "386-69", "Intersection": "STANDISH ST", "Owner": "City", "last_edited_date": "2023-02-16", "Street_ID": "386", "Pole_Num": "69"}},{"geometry": {"type": "Point", "coordinates": [-71.11630075023206, 42.381136549029414]}, "type": "Feature", "id": 94, "properties": {"PoleID": "528-13", "Neighborhood": 8.0, "Description": "Cobrahead", "FixtureType": "A2", "NumLamps": 1, "EditDate": "2014", "StreetSuffix": "ST", "LEDchk": "Yes", "StreetName": "OXFORD", "Lamp1": "528-13", "Intersection": "OXFORD ST", "Owner": "City", "last_edited_date": "2023-02-16", "Street_ID": "528", "Pole_Num": "13"}},{"geometry": {"type": "Point", "coordinates": [-71.11967541557728, 42.380992612362306]}, "type": "Feature", "id": 95, "properties": {"PoleID": "471-182.5", "Neighborhood": 8.0, "Description": "Cobrahead", "FixtureType": "A1", "NumLamps": 1, "EditDate": "2014", "StreetSuffix": "AVE", "LEDchk": "Yes", "StreetName": "MASSACHUSETTS", "Lamp1": "471-182.5", "Intersection": "MASSACHUSETTS AVE", "Owner": "City", "last_edited_date": "2023-02-16", "Street_ID": "471", "Pole_Num": "182.5"}},{"geometry": {"type": "Point", "coordinates": [-71.11844620364676, 42.38074525787356]}, "type": "Feature", "id": 96, "properties": {"PoleID": "479-7", "Neighborhood": 8.0, "Description": "Cobrahead", "FixtureType": "A2", "NumLamps": 1, "EditDate": "2014", "StreetSuffix": "ST", "LEDchk": "Yes", "StreetName": "MELLEN", "Lamp1": "479-7", "Intersection": "MELLEN ST", "Owner": "City", "last_edited_date": "2023-02-16", "Street_ID": "479", "Pole_Num": "7"}},{"geometry": {"type": "Point", "coordinates": [-71.13408553328124, 42.38075461206534]}, "type": "Feature", "id": 97, "properties": {"PoleID": "20-21", "Neighborhood": 10.0, "Description": "Cobrahead", "FixtureType": "A3", "NumLamps": 1, "EditDate": "2014", "StreetSuffix": "ST", "LEDchk": "Yes", "StreetName": "APPLETON", "Lamp1": "20-21", "Intersection": "APPLETON RD", "Owner": "City", "last_edited_date": "2023-02-16", "Street_ID": "20", "Pole_Num": "21"}},{"geometry": {"type": "Point", "coordinates": [-71.14232039860535, 42.38066613709046]}, "type": "Feature", "id": 98, "properties": {"PoleID": "346-23", "Neighborhood": 10.0, "Description": "Cobrahead", "FixtureType": "A3", "NumLamps": 1, "EditDate": "2014", "StreetSuffix": "RD", "LEDchk": "Yes", "StreetName": "GROZIER", "Lamp1": "346-23", "Intersection": "GROZIER RD", "Owner": "City", "last_edited_date": "2023-02-16", "Street_ID": "346", "Pole_Num": "23"}},{"geometry": {"type": "Point", "coordinates": [-71.1417968811394, 42.380508264346176]}, "type": "Feature", "id": 99, "properties": {"PoleID": "386-82", "Neighborhood": 10.0, "Description": "Cobrahead", "FixtureType": "A2", "NumLamps": 1, "EditDate": "2014", "StreetSuffix": "AVE", "LEDchk": "Yes", "StreetName": "HURON", "Lamp1": "386-82", "Intersection": "HURON AVE", "Owner": "City", "last_edited_date": "2023-02-16", "Street_ID": "386", "Pole_Num": "82"}},{"geometry": {"type": "Point", "coordinates": [-71.14112803665977, 42.38041699977942]}, "type": "Feature", "id": 100, "properties": {"PoleID": "435-25", "Neighborhood": 10.0, "Description": "Cobrahead", "FixtureType": "A3", "NumLamps": 1, "EditDate": "2014", "StreetSuffix": "AVE", "LEDchk": "Yes", "StreetName": "LEXINGTON", "Lamp1": "435-25", "Intersection": "HURON AVE", "Owner": "City", "last_edited_date": "2023-02-16", "Street_ID": "435", "Pole_Num": "25"}},{"geometry": {"type": "Point", "coordinates": [-71.14315893167688, 42.38039479423821]}, "type": "Feature", "id": 101, "properties": {"PoleID": "386-89", "Neighborhood": 10.0, "Description": "Cobrahead", "FixtureType": "A2", "NumLamps": 1, "EditDate": "2014", "StreetSuffix": "AVE", "LEDchk": "Yes", "StreetName": "HURON", "Lamp1": "386-89", "Intersection": "HURON AVE", "Owner": "City", "last_edited_date": "2023-02-16", "Street_ID": "386", "Pole_Num": "89"}},{"geometry": {"type": "Point", "coordinates": [-71.1426411197962, 42.38033629454442]}, "type": "Feature", "id": 102, "properties": {"PoleID": "386-86", "Neighborhood": 10.0, "Description": "Cobrahead", "FixtureType": "A2", "NumLamps": 1, "EditDate": "2014", "StreetSuffix": "AVE", "LEDchk": "Yes", "StreetName": "HURON", "Lamp1": "386-86", "Intersection": "HURON AVE", "Owner": "City", "last_edited_date": "2023-02-16", "Street_ID": "386", "Pole_Num": "86"}},{"geometry": {"type": "Point", "coordinates": [-71.11957832589474, 42.379910203370315]}, "type": "Feature", "id": 103, "properties": {"PoleID": "244-1", "Neighborhood": 8.0, "Description": "Cobrahead", "FixtureType": "A2", "NumLamps": 1, "EditDate": "2014", "StreetSuffix": "ST", "LEDchk": "Yes", "StreetName": "EVERETT", "Lamp1": "244-1", "Intersection": "MASSACHUSETTS AVE", "Owner": "City", "last_edited_date": "2023-02-16", "Street_ID": "244", "Pole_Num": "1"}},{"geometry": {"type": "Point", "coordinates": [-71.13154958268353, 42.37983750219179]}, "type": "Feature", "id": 104, "properties": {"PoleID": "643-32", "Neighborhood": 10.0, "Description": "Cobrahead", "FixtureType": "A2", "NumLamps": 1, "EditDate": "2014", "StreetSuffix": "ST", "LEDchk": "Yes", "StreetName": "SPARKS", "Lamp1": "643-32", "Intersection": "SPARKS ST", "Owner": "City", "last_edited_date": "2023-02-16", "Street_ID": "643", "Pole_Num": "32"}},{"geometry": {"type": "Point", "coordinates": [-71.12621222441906, 42.379635253992355]}, "type": "Feature", "id": 105, "properties": {"PoleID": "170-18", "Neighborhood": 9.0, "Description": "Cobrahead", "FixtureType": "A2", "NumLamps": 1, "EditDate": "2014", "StreetSuffix": "AVE", "LEDchk": "Yes", "StreetName": "CONCORD", "Lamp1": "170-18", "Intersection": "CONCORD AVE", "Owner": "City", "last_edited_date": "2023-02-16", "Street_ID": "170", "Pole_Num": "18"}},{"geometry": {"type": "Point", "coordinates": [-71.10969075628601, 42.37956003468903]}, "type": "Feature", "id": 106, "properties": {"PoleID": "623-10", "Neighborhood": 8.0, "Description": "Cobrahead", "FixtureType": "A2", "NumLamps": 1, "EditDate": "2014", "StreetSuffix": "ST", "LEDchk": "Yes", "StreetName": "SCOTT", "Lamp1": "623-10", "Intersection": "BRYANT ST", "Owner": "City", "last_edited_date": "2023-02-16", "Street_ID": "623", "Pole_Num": "10"}},{"geometry": {"type": "Point", "coordinates": [-71.14556044724479, 42.379566022623855]}, "type": "Feature", "id": 107, "properties": {"PoleID": "386-101", "Neighborhood": 10.0, "Description": "Cobrahead", "FixtureType": "A2", "NumLamps": 1, "EditDate": "2014", "StreetSuffix": "AVE", "LEDchk": "Yes", "StreetName": "HURON", "Lamp1": "386-101", "Intersection": "HURON AVE", "Owner": "City", "last_edited_date": "2023-02-16", "Street_ID": "386", "Pole_Num": "101"}},{"geometry": {"type": "Point", "coordinates": [-71.11662236140864, 42.37941686578534]}, "type": "Feature", "id": 108, "properties": {"PoleID": "528-8", "Neighborhood": 8.0, "Description": "Cobrahead", "FixtureType": "A2", "NumLamps": 1, "EditDate": "2014", "StreetSuffix": "ST", "LEDchk": "Yes", "StreetName": "OXFORD", "Lamp1": "528-8", "Intersection": "OXFORD ST", "Owner": "City", "last_edited_date": "2023-02-16", "Street_ID": "528", "Pole_Num": "8"}},{"geometry": {"type": "Point", "coordinates": [-71.12562223658276, 42.37942946469754]}, "type": "Feature", "id": 109, "properties": {"PoleID": "170-17", "Neighborhood": 9.0, "Description": "Cobrahead", "FixtureType": "A2", "NumLamps": 1, "EditDate": "2014", "StreetSuffix": "AVE", "LEDchk": "Yes", "StreetName": "CONCORD", "Lamp1": "170-17", "Intersection": "CRAIGIE ST", "Owner": "City", "last_edited_date": "2023-02-16", "Street_ID": "170", "Pole_Num": "17"}},{"geometry": {"type": "Point", "coordinates": [-71.12610625082057, 42.379331831180735]}, "type": "Feature", "id": 110, "properties": {"PoleID": "182-1", "Neighborhood": 10.0, "Description": "Cobrahead", "FixtureType": "A2", "NumLamps": 1, "EditDate": "2014", "StreetSuffix": "ST", "LEDchk": "Yes", "StreetName": "CRAIGIE", "Lamp1": "182-1", "Intersection": "CRAIGIE ST", "Owner": "City", "last_edited_date": "2023-02-16", "Street_ID": "182", "Pole_Num": "1"}},{"geometry": {"type": "Point", "coordinates": [-71.12359636714022, 42.37916263914373]}, "type": "Feature", "id": 111, "properties": {"PoleID": "142-18", "Neighborhood": 9.0, "Description": "Cobrahead", "FixtureType": "A2", "NumLamps": 1, "EditDate": "2014", "StreetSuffix": "ST", "LEDchk": "Yes", "StreetName": "CHAUNCY", "Lamp1": "142-18", "Intersection": "CHAUNCY ST", "Owner": "City", "last_edited_date": "2023-02-16", "Street_ID": "142", "Pole_Num": "18"}},{"geometry": {"type": "Point", "coordinates": [-71.15146159479671, 42.37918022432902]}, "type": "Feature", "id": 112, "properties": {"PoleID": "370-30", "Neighborhood": 13.0, "Description": "Cobrahead", "FixtureType": "A3", "NumLamps": 1, "EditDate": "2014", "StreetSuffix": "ST", "LEDchk": "Yes", "StreetName": "HOLWORTHY", "Lamp1": "370-30", "Intersection": "HOLWORTHY ST", "Owner": "City", "last_edited_date": "2023-02-16", "Street_ID": "370", "Pole_Num": "30"}},{"geometry": {"type": "Point", "coordinates": [-71.14569761143493, 42.37922784994526]}, "type": "Feature", "id": 113, "properties": {"PoleID": "386-104", "Neighborhood": 10.0, "Description": "Cobrahead", "FixtureType": "A2", "NumLamps": 1, "EditDate": "2014", "StreetSuffix": "AVE", "LEDchk": "Yes", "StreetName": "HURON", "Lamp1": "386-104", "Intersection": "HURON AVE", "Owner": "City", "last_edited_date": "2023-02-16", "Street_ID": "386", "Pole_Num": "104"}},{"geometry": {"type": "Point", "coordinates": [-71.11652606629224, 42.37905568153982]}, "type": "Feature", "id": 114, "properties": {"PoleID": "528-7", "Neighborhood": 8.0, "Description": "Cobrahead", "FixtureType": "A2", "NumLamps": 1, "EditDate": "2014", "StreetSuffix": "ST", "LEDchk": "Yes", "StreetName": "OXFORD", "Lamp1": "528-7", "Intersection": "OXFORD ST", "Owner": "City", "last_edited_date": "2023-02-16", "Street_ID": "528", "Pole_Num": "7"}},{"geometry": {"type": "Point", "coordinates": [-71.15017039506722, 42.37904103969106]}, "type": "Feature", "id": 115, "properties": {"PoleID": "278-5", "Neighborhood": 13.0, "Description": "Cobrahead", "FixtureType": "A3", "NumLamps": 1, "EditDate": "2014", "StreetSuffix": "TER", "LEDchk": "Yes", "StreetName": "FOUNTAIN", "Lamp1": "278-5", "Intersection": "HURON AVE", "Owner": "City", "last_edited_date": "2023-02-16", "Street_ID": "278", "Pole_Num": "5"}},{"geometry": {"type": "Point", "coordinates": [-71.12423829002853, 42.37888210273437]}, "type": "Feature", "id": 116, "properties": {"PoleID": "293-28", "Neighborhood": 9.0, "Description": "Cobrahead", "FixtureType": "A2", "NumLamps": 1, "EditDate": "2014", "StreetSuffix": "ST", "LEDchk": "Yes", "StreetName": "GARDEN", "Lamp1": "293-28", "Intersection": "CHAUNCY ST", "Owner": "City", "last_edited_date": "2023-02-16", "Street_ID": "293", "Pole_Num": "28"}},{"geometry": {"type": "Point", "coordinates": [-71.12947600006918, 42.37888168426873]}, "type": "Feature", "id": 117, "properties": {"PoleID": "106-3", "Neighborhood": 10.0, "Description": "Cobrahead", "FixtureType": "A3", "NumLamps": 1, "EditDate": "2014", "StreetSuffix": "ST", "LEDchk": "Yes", "StreetName": "BUCKINGHAM", "Lamp1": "106-3", "Intersection": "BUCKINGHAM ST", "Owner": "City", "last_edited_date": "2023-02-16", "Street_ID": "106", "Pole_Num": "3"}},{"geometry": {"type": "Point", "coordinates": [-71.1418104442759, 42.3788393877795]}, "type": "Feature", "id": 118, "properties": {"PoleID": "346-12", "Neighborhood": 10.0, "Description": "Cobrahead", "FixtureType": "A3", "NumLamps": 1, "EditDate": "2014", "StreetSuffix": "RD", "LEDchk": "Yes", "StreetName": "GROZIER", "Lamp1": "346-12", "Intersection": "GROZIER RD", "Owner": "City", "last_edited_date": "2023-02-16", "Street_ID": "346", "Pole_Num": "12"}},{"geometry": {"type": "Point", "coordinates": [-71.14651885072277, 42.37879496645607]}, "type": "Feature", "id": 119, "properties": {"PoleID": "386-108", "Neighborhood": 10.0, "Description": "Cobrahead", "FixtureType": "A2", "NumLamps": 1, "EditDate": "2014", "StreetSuffix": "AVE", "LEDchk": "Yes", "StreetName": "HURON", "Lamp1": "386-108", "Intersection": "HURON AVE", "Owner": "City", "last_edited_date": "2023-02-16", "Street_ID": "386", "Pole_Num": "108"}},{"geometry": {"type": "Point", "coordinates": [-71.12435694353913, 42.37874471269426]}, "type": "Feature", "id": 120, "properties": {"PoleID": "170-11", "Neighborhood": 9.0, "Description": "Cobrahead", "FixtureType": "A3", "NumLamps": 1, "EditDate": "2014", "StreetSuffix": "AVE", "LEDchk": "Yes", "StreetName": "CONCORD", "Lamp1": "170-11", "Intersection": "GARDEN ST", "Owner": "City", "last_edited_date": "2023-02-16", "Street_ID": "170", "Pole_Num": "11"}},{"geometry": {"type": "Point", "coordinates": [-71.14310878461477, 42.376944049179876]}, "type": "Feature", "id": 121, "properties": {"PoleID": "424-1", "Neighborhood": 10.0, "Description": "Cobrahead", "FixtureType": "A3", "NumLamps": 1, "EditDate": "2014", "StreetSuffix": "DR", "LEDchk": "Yes", "StreetName": "LARCHWOOD", "Lamp1": "424-1", "Intersection": "MEADOW WAY", "Owner": "City", "last_edited_date": "2023-02-16", "Street_ID": "424", "Pole_Num": "1"}},{"geometry": {"type": "Point", "coordinates": [-71.13933074269663, 42.37875212750683]}, "type": "Feature", "id": 122, "properties": {"PoleID": "417-16", "Neighborhood": 10.0, "Description": "Cobrahead", "FixtureType": "A3", "NumLamps": 1, "EditDate": "2014", "StreetSuffix": "AVE", "LEDchk": "Yes", "StreetName": "LAKEVIEW", "Lamp1": "417-16", "Intersection": "LAKEVIEW AVE", "Owner": "City", "last_edited_date": "2023-02-16", "Street_ID": "417", "Pole_Num": "16"}},{"geometry": {"type": "Point", "coordinates": [-71.14858745191975, 42.378328602605116]}, "type": "Feature", "id": 123, "properties": {"PoleID": "534-4", "Neighborhood": 13.0, "Description": "Cobrahead", "FixtureType": "A3", "NumLamps": 1, "EditDate": "2014", "StreetSuffix": "AVE", "LEDchk": "Yes", "StreetName": "PARK", "Lamp1": "534-4", "Intersection": "PARK AVE", "Owner": "City", "last_edited_date": "2023-02-16", "Street_ID": "534", "Pole_Num": "4"}},{"geometry": {"type": "Point", "coordinates": [-71.13188481147002, 42.37822317456808]}, "type": "Feature", "id": 124, "properties": {"PoleID": "586-6", "Neighborhood": 10.0, "Description": "Cobrahead", "FixtureType": "A3", "NumLamps": 1, "EditDate": "2014", "StreetSuffix": "AVE", "LEDchk": "Yes", "StreetName": "RIEDESEL", "Lamp1": "586-6", "Intersection": "RIEDESEL AVE", "Owner": "City", "last_edited_date": "2023-02-16", "Street_ID": "586", "Pole_Num": "6"}},{"geometry": {"type": "Point", "coordinates": [-71.13457828880794, 42.37812873243968]}, "type": "Feature", "id": 125, "properties": {"PoleID": "403-5", "Neighborhood": 10.0, "Description": "Cobrahead", "FixtureType": "A3", "NumLamps": 1, "EditDate": "2014", "StreetSuffix": "RD", "LEDchk": "Yes", "StreetName": "KENNEDY", "Lamp1": "403-5", "Intersection": "KENNEDY RD", "Owner": "City", "last_edited_date": "2023-02-16", "Street_ID": "403", "Pole_Num": "5"}},{"geometry": {"type": "Point", "coordinates": [-71.1295159215507, 42.378062968555355]}, "type": "Feature", "id": 126, "properties": {"PoleID": "182-18", "Neighborhood": 10.0, "Description": "Cobrahead", "FixtureType": "A3", "NumLamps": 1, "EditDate": "2014", "StreetSuffix": "ST", "LEDchk": "Yes", "StreetName": "CRAIGIE", "Lamp1": "182-18", "Intersection": "CRAIGIE ST", "Owner": "City", "last_edited_date": "2023-02-16", "Street_ID": "182", "Pole_Num": "18"}},{"geometry": {"type": "Point", "coordinates": [-71.1415112728337, 42.378008588155694]}, "type": "Feature", "id": 127, "properties": {"PoleID": "346-6", "Neighborhood": 10.0, "Description": "Cobrahead", "FixtureType": "A3", "NumLamps": 1, "EditDate": "2014", "StreetSuffix": "RD", "LEDchk": "Yes", "StreetName": "GROZIER", "Lamp1": "346-6", "Intersection": "GROZIER RD", "Owner": "City", "last_edited_date": "2023-02-16", "Street_ID": "346", "Pole_Num": "6"}},{"geometry": {"type": "Point", "coordinates": [-71.13628754503281, 42.37789354398821]}, "type": "Feature", "id": 128, "properties": {"PoleID": "127-3", "Neighborhood": 10.0, "Description": "Cobrahead", "FixtureType": "A3", "NumLamps": 1, "EditDate": "2014", "StreetSuffix": "PL", "LEDchk": "Yes", "StreetName": "CHANNING", "Lamp1": "127-3", "Intersection": "CHANNING PL", "Owner": "City", "last_edited_date": "2023-02-16", "Street_ID": "127", "Pole_Num": "3"}},{"geometry": {"type": "Point", "coordinates": [-71.10891502792745, 42.37778877272671]}, "type": "Feature", "id": 129, "properties": {"PoleID": "412-19", "Neighborhood": 6.0, "Description": "Cobrahead", "FixtureType": "A2", "NumLamps": 1, "EditDate": "2014", "StreetSuffix": "ST", "LEDchk": "Yes", "StreetName": "KIRKLAND", "Lamp1": "412-19", "Intersection": "KIRKLAND ST", "Owner": "City", "last_edited_date": "2023-02-16", "Street_ID": "412", "Pole_Num": "19"}},{"geometry": {"type": "Point", "coordinates": [-71.14501356007557, 42.3778404237807]}, "type": "Feature", "id": 130, "properties": {"PoleID": "793-2", "Neighborhood": 10.0, "Description": "Cobrahead", "FixtureType": "A3", "NumLamps": 1, "EditDate": "2014", "StreetSuffix": "WAY", "LEDchk": "Yes", "StreetName": "MEADOW", "Lamp1": "793-2", "Intersection": "MEADOW WAY", "Owner": "City", "last_edited_date": "2023-02-16", "Street_ID": "793", "Pole_Num": "2"}},{"geometry": {"type": "Point", "coordinates": [-71.13765660059521, 42.3777650346974]}, "type": "Feature", "id": 131, "properties": {"PoleID": "255-6", "Neighborhood": 10.0, "Description": "Cobrahead", "FixtureType": "A2", "NumLamps": 1, "EditDate": "2014", "StreetSuffix": "ST", "LEDchk": "Yes", "StreetName": "FAYERWEATHER ST", "Lamp1": "255-6", "Intersection": "FAYERWEATHER ST", "Owner": "City", "last_edited_date": "2023-02-16", "Street_ID": "255", "Pole_Num": "6"}},{"geometry": {"type": "Point", "coordinates": [-71.15210211617386, 42.377769310958136]}, "type": "Feature", "id": 132, "properties": {"PoleID": "189-20", "Neighborhood": 13.0, "Description": "Cobrahead", "FixtureType": "A3", "NumLamps": 1, "EditDate": "2014", "StreetSuffix": "ST", "LEDchk": "Yes", "StreetName": "CUSHING", "Lamp1": "189-20", "Intersection": "LAWN ST", "Owner": "City", "last_edited_date": "2023-02-16", "Street_ID": "189", "Pole_Num": "20"}},{"geometry": {"type": "Point", "coordinates": [-71.10737677779116, 42.37760445760203]}, "type": "Feature", "id": 133, "properties": {"PoleID": "500-4", "Neighborhood": 6.0, "Description": "Cobrahead", "FixtureType": "A3", "NumLamps": 1, "EditDate": "2014", "StreetSuffix": "AVE", "LEDchk": "Yes", "StreetName": "MYRTLE", "Lamp1": "500-4", "Intersection": "MYRTLE AVE", "Owner": "City", "last_edited_date": "2023-02-16", "Street_ID": "500", "Pole_Num": "4"}},{"geometry": {"type": "Point", "coordinates": [-71.10928344144392, 42.37758893170876]}, "type": "Feature", "id": 134, "properties": {"PoleID": "412-18", "Neighborhood": 6.0, "Description": "Cobrahead", "FixtureType": "A2", "NumLamps": 1, "EditDate": "2014", "StreetSuffix": "ST", "LEDchk": "Yes", "StreetName": "KIRKLAND", "Lamp1": "412-18", "Intersection": "TROWBRIDGE ST", "Owner": "City", "last_edited_date": "2023-02-16", "Street_ID": "412", "Pole_Num": "18"}},{"geometry": {"type": "Point", "coordinates": [-71.12201650316186, 42.37760313085573]}, "type": "Feature", "id": 135, "properties": {"PoleID": "714-6", "Neighborhood": 9.0, "Description": "Cobrahead", "FixtureType": "A2", "NumLamps": 1, "EditDate": "2014", "StreetSuffix": "ST", "LEDchk": "Yes", "StreetName": "WATERHOUSE", "Lamp1": "714-6", "Intersection": "CONCORD AVE", "Owner": "City", "last_edited_date": "2023-02-16", "Street_ID": "714", "Pole_Num": "6"}},{"geometry": {"type": "Point", "coordinates": [-71.14430459056513, 42.377589781155656]}, "type": "Feature", "id": 136, "properties": {"PoleID": "287-4", "Neighborhood": 10.0, "Description": "Cobrahead", "FixtureType": "A3", "NumLamps": 1, "EditDate": "2014", "StreetSuffix": "LN", "LEDchk": "Yes", "StreetName": "FRESH POND", "Lamp1": "287-4", "Intersection": "FRESH POND LN", "Owner": "City", "last_edited_date": "2023-02-16", "Street_ID": "287", "Pole_Num": "4"}},{"geometry": {"type": "Point", "coordinates": [-71.15022263323065, 42.3776084896111]}, "type": "Feature", "id": 137, "properties": {"PoleID": "367-7", "Neighborhood": 13.0, "Description": "Cobrahead", "FixtureType": "A3", "NumLamps": 1, "EditDate": "2014", "StreetSuffix": "ST", "LEDchk": "Yes", "StreetName": "HOLMES", "Lamp1": "367-7", "Intersection": "HOLMES ST", "Owner": "City", "last_edited_date": "2023-02-16", "Street_ID": "367", "Pole_Num": "7"}},{"geometry": {"type": "Point", "coordinates": [-71.10938299132017, 42.37745563339483]}, "type": "Feature", "id": 138, "properties": {"PoleID": "673-47", "Neighborhood": 6.0, "Description": "Cobrahead", "FixtureType": "A2", "NumLamps": 1, "EditDate": "2014", "StreetSuffix": "ST", "LEDchk": "Yes", "StreetName": "TROWBRIDGE", "Lamp1": "673-47", "Intersection": "TROWBRIDGE ST", "Owner": "City", "last_edited_date": "2023-02-16", "Street_ID": "673", "Pole_Num": "47"}},{"geometry": {"type": "Point", "coordinates": [-71.12272506466101, 42.37739276837925]}, "type": "Feature", "id": 139, "properties": {"PoleID": "714-2", "Neighborhood": 9.0, "Description": "Cobrahead", "FixtureType": "A2", "NumLamps": 1, "EditDate": "2014", "StreetSuffix": "ST", "LEDchk": "Yes", "StreetName": "WATERHOUSE", "Lamp1": "714-2", "Intersection": "WATERHOUSE ST", "Owner": "City", "last_edited_date": "2023-02-16", "Street_ID": "714", "Pole_Num": "2"}},{"geometry": {"type": "Point", "coordinates": [-71.11282483507631, 42.37730568201358]}, "type": "Feature", "id": 140, "properties": {"PoleID": "413-2", "Neighborhood": 8.0, "Description": "Cobrahead", "FixtureType": "A3", "NumLamps": 1, "EditDate": "2014", "StreetSuffix": "PL", "LEDchk": "Yes", "StreetName": "KIRKLAND", "Lamp1": "413-2", "Intersection": "KIRKLAND PL", "Owner": "City", "last_edited_date": "2023-02-16", "Street_ID": "413", "Pole_Num": "2"}},{"geometry": {"type": "Point", "coordinates": [-71.11121386766884, 42.377180200543904]}, "type": "Feature", "id": 141, "properties": {"PoleID": "412-14", "Neighborhood": 6.0, "Description": "Cobrahead", "FixtureType": "A2", "NumLamps": 1, "EditDate": "2014", "StreetSuffix": "ST", "LEDchk": "Yes", "StreetName": "KIRKLAND", "Lamp1": "412-14", "Intersection": "KIRKLAND ST", "Owner": "City", "last_edited_date": "2023-02-16", "Street_ID": "412", "Pole_Num": "14"}},{"geometry": {"type": "Point", "coordinates": [-71.11065212437695, 42.37711630355436]}, "type": "Feature", "id": 142, "properties": {"PoleID": "391-18", "Neighborhood": 6.0, "Description": "Cobrahead", "FixtureType": "A3", "NumLamps": 1, "EditDate": "2014", "StreetSuffix": "ST", "LEDchk": "Yes", "StreetName": "IRVING", "Lamp1": "391-18", "Intersection": "IRVING ST", "Owner": "City", "last_edited_date": "2023-02-16", "Street_ID": "391", "Pole_Num": "18"}},{"geometry": {"type": "Point", "coordinates": [-71.12393020832869, 42.377180998304475]}, "type": "Feature", "id": 143, "properties": {"PoleID": "546-9", "Neighborhood": 10.0, "Description": "Cobrahead", "FixtureType": "A3", "NumLamps": 1, "EditDate": "2014", "StreetSuffix": "PL", "LEDchk": "Yes", "StreetName": "PHILLIPS", "Lamp1": "546-9", "Intersection": "PHILLIPS PL", "Owner": "City", "last_edited_date": "2023-02-16", "Street_ID": "546", "Pole_Num": "9"}},{"geometry": {"type": "Point", "coordinates": [-71.11147564205807, 42.37681698301952]}, "type": "Feature", "id": 144, "properties": {"PoleID": "414-3", "Neighborhood": 6.0, "Description": "Cobrahead", "FixtureType": "A3", "NumLamps": 1, "EditDate": "2014", "StreetSuffix": "RD", "LEDchk": "Yes", "StreetName": "KIRKLAND", "Lamp1": "414-3", "Intersection": "KIRKLAND RD", "Owner": "City", "last_edited_date": "2023-02-16", "Street_ID": "414", "Pole_Num": "3"}},{"geometry": {"type": "Point", "coordinates": [-71.1275869736365, 42.37671538125409]}, "type": "Feature", "id": 145, "properties": {"PoleID": "92-33", "Neighborhood": 10.0, "Description": "Cobrahead", "FixtureType": "A2", "NumLamps": 1, "EditDate": "2014", "StreetSuffix": "ST", "LEDchk": "Yes", "StreetName": "BRATTLE", "Lamp1": "92-33", "Intersection": "WILLARD ST", "Owner": "City", "last_edited_date": "2023-02-16", "Street_ID": "92", "Pole_Num": "33"}},{"geometry": {"type": "Point", "coordinates": [-71.12863303812567, 42.3767064533136]}, "type": "Feature", "id": 146, "properties": {"PoleID": "104-3", "Neighborhood": 10.0, "Description": "Cobrahead", "FixtureType": "A3", "NumLamps": 1, "EditDate": "2014", "StreetSuffix": "ST", "LEDchk": "Yes", "StreetName": "BROWN", "Lamp1": "104-3", "Intersection": "BROWN ST", "Owner": "City", "last_edited_date": "2023-02-16", "Street_ID": "104", "Pole_Num": "3"}},{"geometry": {"type": "Point", "coordinates": [-71.11438962934614, 42.37662813448634]}, "type": "Feature", "id": 147, "properties": {"PoleID": "412-7", "Neighborhood": 6.0, "Description": "Cobrahead", "FixtureType": "A2", "NumLamps": 1, "EditDate": "2014", "StreetSuffix": "ST", "LEDchk": "Yes", "StreetName": "KIRKLAND", "Lamp1": "412-7", "Intersection": "KIRKLAND ST", "Owner": "City", "last_edited_date": "2023-02-16", "Street_ID": "412", "Pole_Num": "7"}},{"geometry": {"type": "Point", "coordinates": [-71.14473743371425, 42.37664327414422]}, "type": "Feature", "id": 148, "properties": {"PoleID": "424-3", "Neighborhood": 10.0, "Description": "Cobrahead", "FixtureType": "A3", "NumLamps": 1, "EditDate": "2014", "StreetSuffix": "DR", "LEDchk": "Yes", "StreetName": "LARCHWOOD", "Lamp1": "424-3", "Intersection": "OLD DEE RD", "Owner": "City", "last_edited_date": "2023-02-16", "Street_ID": "424", "Pole_Num": "3"}},{"geometry": {"type": "Point", "coordinates": [-71.13880516848344, 42.37659261523217]}, "type": "Feature", "id": 149, "properties": {"PoleID": "92-62", "Neighborhood": 10.0, "Description": "Cobrahead", "FixtureType": "A2", "NumLamps": 1, "EditDate": "2014", "StreetSuffix": "ST", "LEDchk": "Yes", "StreetName": "BRATTLE", "Lamp1": "92-62", "Intersection": "BRATTLE ST", "Owner": "City", "last_edited_date": "2023-02-16", "Street_ID": "92", "Pole_Num": "62"}},{"geometry": {"type": "Point", "coordinates": [-71.10542428133039, 42.37620104995638]}, "type": "Feature", "id": 150, "properties": {"PoleID": "434-15", "Neighborhood": 6.0, "Description": "Cobrahead", "FixtureType": "A3", "NumLamps": 1, "EditDate": "2014", "StreetSuffix": "AVE", "LEDchk": "Yes", "StreetName": "LEONARD", "Lamp1": "434-15", "Intersection": "LINE ST", "Owner": "City", "last_edited_date": "2023-02-16", "Street_ID": "434", "Pole_Num": "15"}},{"geometry": {"type": "Point", "coordinates": [-71.14929452663272, 42.376330567015344]}, "type": "Feature", "id": 151, "properties": {"PoleID": "371-3", "Neighborhood": 13.0, "Description": "Cobrahead", "FixtureType": "A3", "NumLamps": 1, "EditDate": "2014", "StreetSuffix": "PL", "LEDchk": "Yes", "StreetName": "HOLWORTHY", "Lamp1": "371-3", "Intersection": "HOLWORTHY PL", "Owner": "City", "last_edited_date": "2023-02-16", "Street_ID": "371", "Pole_Num": "3"}},{"geometry": {"type": "Point", "coordinates": [-71.1213217861767, 42.37621299044602]}, "type": "Feature", "id": 152, "properties": {"PoleID": "293-7.5", "Neighborhood": 9.0, "Description": "Cobrahead", "FixtureType": "A2", "NumLamps": 1, "EditDate": "2014", "StreetSuffix": "ST", "LEDchk": "Yes", "StreetName": "GARDEN", "Lamp1": "293-7.5", "Intersection": "GARDEN ST", "Owner": "City", "last_edited_date": "2023-02-16", "Street_ID": "293", "Pole_Num": "7.5"}},{"geometry": {"type": "Point", "coordinates": [-71.12342362234862, 42.37621234919933]}, "type": "Feature", "id": 153, "properties": {"PoleID": "470-5", "Neighborhood": 10.0, "Description": "Cobrahead", "FixtureType": "A2", "NumLamps": 1, "EditDate": "2014", "StreetSuffix": "ST", "LEDchk": "Yes", "StreetName": "MASON", "Lamp1": "470-5", "Intersection": "JAMES ST", "Owner": "City", "last_edited_date": "2023-02-16", "Street_ID": "470", "Pole_Num": "5"}},{"geometry": {"type": "Point", "coordinates": [-71.15293548107904, 42.376199367245306]}, "type": "Feature", "id": 154, "properties": {"PoleID": "190-5", "Neighborhood": 13.0, "Description": "Cobrahead", "FixtureType": "A3", "NumLamps": 1, "EditDate": "2014", "StreetSuffix": "AVE", "LEDchk": "Yes", "StreetName": "THINGVALLA", "Lamp1": "190-5", "Intersection": "THINGVALLA AVE", "Owner": "City", "last_edited_date": "2023-02-16", "Street_ID": "190", "Pole_Num": "5"}},{"geometry": {"type": "Point", "coordinates": [-71.15458373548486, 42.376151251981554]}, "type": "Feature", "id": 155, "properties": {"PoleID": "190-12", "Neighborhood": 13.0, "Description": "Cobrahead", "FixtureType": "A3", "NumLamps": 1, "EditDate": "2014", "StreetSuffix": "AVE", "LEDchk": "Yes", "StreetName": "THINGVALLA", "Lamp1": "190-12", "Intersection": "ERICSSON ST", "Owner": "City", "last_edited_date": "2023-02-16", "Street_ID": "190", "Pole_Num": "12"}},{"geometry": {"type": "Point", "coordinates": [-71.15384475990416, 42.37609317992849]}, "type": "Feature", "id": 156, "properties": {"PoleID": "72-8", "Neighborhood": 13.0, "Description": "Cobrahead", "FixtureType": "A3", "NumLamps": 1, "EditDate": "2014", "StreetSuffix": "RD", "LEDchk": "Yes", "StreetName": "SULLIVAN", "Lamp1": "72-8", "Intersection": "THINGVALLA AVE", "Owner": "City", "last_edited_date": "2023-02-16", "Street_ID": "72", "Pole_Num": "8"}},{"geometry": {"type": "Point", "coordinates": [-71.14488899858897, 42.37611899251431]}, "type": "Feature", "id": 157, "properties": {"PoleID": "527-1", "Neighborhood": 10.0, "Description": "Cobrahead", "FixtureType": "A3", "NumLamps": 1, "EditDate": "2014", "StreetSuffix": "RD", "LEDchk": "Yes", "StreetName": "OLD DEE", "Lamp1": "527-1", "Intersection": "OLD DEE RD", "Owner": "City", "last_edited_date": "2023-02-16", "Street_ID": "527", "Pole_Num": "1"}},{"geometry": {"type": "Point", "coordinates": [-71.13744015464673, 42.37580704845498]}, "type": "Feature", "id": 158, "properties": {"PoleID": "232-8", "Neighborhood": 10.0, "Description": "Cobrahead", "FixtureType": "A3", "NumLamps": 1, "EditDate": "2014", "StreetSuffix": "AVE", "LEDchk": "Yes", "StreetName": "ELMWOOD", "Lamp1": "232-8", "Intersection": "ELMWOOD AVE", "Owner": "City", "last_edited_date": "2023-02-16", "Street_ID": "232", "Pole_Num": "8"}},{"geometry": {"type": "Point", "coordinates": [-71.12018901104545, 42.37570986675207]}, "type": "Feature", "id": 159, "properties": {"PoleID": "293-5", "Neighborhood": 9.0, "Description": "Cobrahead", "FixtureType": "A2", "NumLamps": 1, "EditDate": "2014", "StreetSuffix": "ST", "LEDchk": "Yes", "StreetName": "GARDEN", "Lamp1": "293-5", "Intersection": "GARDEN ST", "Owner": "City", "last_edited_date": "2023-02-16", "Street_ID": "293", "Pole_Num": "5"}},{"geometry": {"type": "Point", "coordinates": [-71.15307795866917, 42.375614048925485]}, "type": "Feature", "id": 160, "properties": {"PoleID": "517-4", "Neighborhood": 13.0, "Description": "Cobrahead", "FixtureType": "A3", "NumLamps": 1, "EditDate": "2014", "StreetSuffix": "ST", "LEDchk": "Yes", "StreetName": "NORUMBEGA", "Lamp1": "517-4", "Intersection": "NORUMBEGA ST", "Owner": "City", "last_edited_date": "2023-02-16", "Street_ID": "517", "Pole_Num": "4"}},{"geometry": {"type": "Point", "coordinates": [-71.14511884331762, 42.375407714008425]}, "type": "Feature", "id": 161, "properties": {"PoleID": "490-97", "Neighborhood": 10.0, "Description": "Cobrahead", "FixtureType": "A2", "NumLamps": 1, "EditDate": "2014", "StreetSuffix": "ST", "LEDchk": "Yes", "StreetName": "MT AUBURN", "Lamp1": "490-97", "Intersection": "MT AUBURN ST", "Owner": "City", "last_edited_date": "2023-02-16", "Street_ID": "490", "Pole_Num": "97"}},{"geometry": {"type": "Point", "coordinates": [-71.14459636230112, 42.375276102846925]}, "type": "Feature", "id": 162, "properties": {"PoleID": "490-94", "Neighborhood": 10.0, "Description": "Cobrahead", "FixtureType": "A2", "NumLamps": 1, "EditDate": "2014", "StreetSuffix": "ST", "LEDchk": "Yes", "StreetName": "MT AUBURN", "Lamp1": "490-94", "Intersection": "MT AUBURN ST", "Owner": "City", "last_edited_date": "2023-02-16", "Street_ID": "490", "Pole_Num": "94"}},{"geometry": {"type": "Point", "coordinates": [-71.14495523103031, 42.37525632624098]}, "type": "Feature", "id": 163, "properties": {"PoleID": "490-96", "Neighborhood": 10.0, "Description": "Cobrahead", "FixtureType": "A2", "NumLamps": 1, "EditDate": "2014", "StreetSuffix": "ST", "LEDchk": "Yes", "StreetName": "MT AUBURN", "Lamp1": "490-96", "Intersection": "MT AUBURN ST", "Owner": "City", "last_edited_date": "2023-02-16", "Street_ID": "490", "Pole_Num": "96"}},{"geometry": {"type": "Point", "coordinates": [-71.14526328309998, 42.375247350068776]}, "type": "Feature", "id": 164, "properties": {"PoleID": "490-98", "Neighborhood": 10.0, "Description": "Cobrahead", "FixtureType": "A2", "NumLamps": 1, "EditDate": "2014", "StreetSuffix": "ST", "LEDchk": "Yes", "StreetName": "MT AUBURN", "Lamp1": "490-98", "Intersection": "MT AUBURN ST", "Owner": "City", "last_edited_date": "2023-02-16", "Street_ID": "490", "Pole_Num": "98"}},{"geometry": {"type": "Point", "coordinates": [-71.13770429785826, 42.37520835953843]}, "type": "Feature", "id": 165, "properties": {"PoleID": "232-12", "Neighborhood": 10.0, "Description": "Cobrahead", "FixtureType": "A3", "NumLamps": 1, "EditDate": "2014", "StreetSuffix": "AVE", "LEDchk": "Yes", "StreetName": "ELMWOOD", "Lamp1": "232-12", "Intersection": "ELMWOOD AVE", "Owner": "City", "last_edited_date": "2023-02-16", "Street_ID": "232", "Pole_Num": "12"}},{"geometry": {"type": "Point", "coordinates": [-71.10580199944361, 42.37508378618346]}, "type": "Feature", "id": 166, "properties": {"PoleID": "434-6", "Neighborhood": 6.0, "Description": "Cobrahead", "FixtureType": "A3", "NumLamps": 1, "EditDate": "2014", "StreetSuffix": "AVE", "LEDchk": "Yes", "StreetName": "LEONARD", "Lamp1": "434-6", "Intersection": "LEONARD AVE", "Owner": "City", "last_edited_date": "2023-02-16", "Street_ID": "434", "Pole_Num": "6"}},{"geometry": {"type": "Point", "coordinates": [-71.11435811788743, 42.37511059979247]}, "type": "Feature", "id": 167, "properties": {"PoleID": "571-12", "Neighborhood": 6.0, "Description": "Cobrahead", "FixtureType": "A3", "NumLamps": 1, "EditDate": "2014", "StreetSuffix": "ST", "LEDchk": "Yes", "StreetName": "QUINCY", "Lamp1": "571-12", "Intersection": "QUINCY ST", "Owner": "City", "last_edited_date": "2023-02-16", "Street_ID": "571", "Pole_Num": "12"}},{"geometry": {"type": "Point", "coordinates": [-71.13569905033656, 42.37509041861159]}, "type": "Feature", "id": 168, "properties": {"PoleID": "490-65", "Neighborhood": 10.0, "Description": "Cobrahead", "FixtureType": "A2", "NumLamps": 1, "EditDate": "2014", "StreetSuffix": "ST", "LEDchk": "Yes", "StreetName": "MT AUBURN", "Lamp1": "490-65", "Intersection": "MT AUBURN ST", "Owner": "City", "last_edited_date": "2023-02-16", "Street_ID": "490", "Pole_Num": "65"}},{"geometry": {"type": "Point", "coordinates": [-71.10870936349247, 42.374995763021374]}, "type": "Feature", "id": 169, "properties": {"PoleID": "43-1", "Neighborhood": 6.0, "Description": "Cobrahead", "FixtureType": "A2", "NumLamps": 1, "EditDate": "2014", "StreetSuffix": "RD", "LEDchk": "Yes", "StreetName": "ROBERTS", "Lamp1": "43-1", "Intersection": "CAMBRIDGE ST", "Owner": "City", "last_edited_date": "2023-02-16", "Street_ID": "43", "Pole_Num": "1"}},{"geometry": {"type": "Point", "coordinates": [-71.13493817191706, 42.37503254275838]}, "type": "Feature", "id": 170, "properties": {"PoleID": "490-63", "Neighborhood": 10.0, "Description": "Cobrahead", "FixtureType": "A2", "NumLamps": 1, "EditDate": "2014", "StreetSuffix": "ST", "LEDchk": "Yes", "StreetName": "MT AUBURN", "Lamp1": "490-63", "Intersection": "MT AUBURN ST", "Owner": "City", "last_edited_date": "2023-02-16", "Street_ID": "490", "Pole_Num": "63"}},{"geometry": {"type": "Point", "coordinates": [-71.13320168130439, 42.374926778715206]}, "type": "Feature", "id": 171, "properties": {"PoleID": "490-57", "Neighborhood": 10.0, "Description": "Cobrahead", "FixtureType": "A2", "NumLamps": 1, "EditDate": "2014", "StreetSuffix": "ST", "LEDchk": "Yes", "StreetName": "MT AUBURN", "Lamp1": "490-57", "Intersection": "MT AUBURN ST", "Owner": "City", "last_edited_date": "2023-02-16", "Street_ID": "490", "Pole_Num": "57"}},{"geometry": {"type": "Point", "coordinates": [-71.10891786474103, 42.37483871245527]}, "type": "Feature", "id": 172, "properties": {"PoleID": "113-103", "Neighborhood": 6.0, "Description": "Cobrahead", "FixtureType": "A2", "NumLamps": 1, "EditDate": "2014", "StreetSuffix": "ST", "LEDchk": "Yes", "StreetName": "CAMBRIDGE", "Lamp1": "113-103", "Intersection": "ROBERTS RD", "Owner": "City", "last_edited_date": "2023-02-16", "Street_ID": "113", "Pole_Num": "103"}},{"geometry": {"type": "Point", "coordinates": [-71.13451171102231, 42.37487954576668]}, "type": "Feature", "id": 173, "properties": {"PoleID": "490-60", "Neighborhood": 10.0, "Description": "Cobrahead", "FixtureType": "A2", "NumLamps": 1, "EditDate": "2014", "StreetSuffix": "ST", "LEDchk": "Yes", "StreetName": "MT AUBURN", "Lamp1": "490-60", "Intersection": "MT AUBURN ST", "Owner": "City", "last_edited_date": "2023-02-16", "Street_ID": "490", "Pole_Num": "60"}},{"geometry": {"type": "Point", "coordinates": [-71.1319581613564, 42.37472120825605]}, "type": "Feature", "id": 174, "properties": {"PoleID": "490-52", "Neighborhood": 10.0, "Description": "Cobrahead", "FixtureType": "A2", "NumLamps": 1, "EditDate": "2014", "StreetSuffix": "ST", "LEDchk": "Yes", "StreetName": "MT AUBURN", "Lamp1": "490-52", "Intersection": "MT AUBURN ST", "Owner": "City", "last_edited_date": "2023-02-16", "Street_ID": "490", "Pole_Num": "52"}},{"geometry": {"type": "Point", "coordinates": [-71.13113344172068, 42.37467223721619]}, "type": "Feature", "id": 175, "properties": {"PoleID": "490-48", "Neighborhood": 10.0, "Description": "Cobrahead", "FixtureType": "A2", "NumLamps": 1, "EditDate": "2014", "StreetSuffix": "ST", "LEDchk": "Yes", "StreetName": "MT AUBURN", "Lamp1": "490-48", "Intersection": "CAMDEN PL", "Owner": "City", "last_edited_date": "2023-02-16", "Street_ID": "490", "Pole_Num": "48"}},{"geometry": {"type": "Point", "coordinates": [-71.1302614082614, 42.37462379691322]}, "type": "Feature", "id": 176, "properties": {"PoleID": "490-46", "Neighborhood": 10.0, "Description": "Cobrahead", "FixtureType": "A2", "NumLamps": 1, "EditDate": "2014", "StreetSuffix": "ST", "LEDchk": "Yes", "StreetName": "MT AUBURN", "Lamp1": "490-46", "Intersection": "MT AUBURN ST", "Owner": "City", "last_edited_date": "2023-02-16", "Street_ID": "490", "Pole_Num": "46"}},{"geometry": {"type": "Point", "coordinates": [-71.14943987808913, 42.37464959434314]}, "type": "Feature", "id": 177, "properties": {"PoleID": "490-118", "Neighborhood": 10.0, "Description": "Cobrahead", "FixtureType": "A2", "NumLamps": 1, "EditDate": "2014", "StreetSuffix": "ST", "LEDchk": "Yes", "StreetName": "MT AUBURN", "Lamp1": "490-118", "Intersection": "MT AUBURN ST", "Owner": "City", "last_edited_date": "2023-02-16", "Street_ID": "490", "Pole_Num": "118"}},{"geometry": {"type": "Point", "coordinates": [-71.12619294634048, 42.3744747424498]}, "type": "Feature", "id": 178, "properties": {"PoleID": "490-35", "Neighborhood": 10.0, "Description": "Cobrahead", "FixtureType": "A2", "NumLamps": 1, "EditDate": "2014", "StreetSuffix": "ST", "LEDchk": "Yes", "StreetName": "MT AUBURN", "Lamp1": "490-35", "Intersection": "MT AUBURN ST", "Owner": "City", "last_edited_date": "2023-02-16", "Street_ID": "490", "Pole_Num": "35"}},{"geometry": {"type": "Point", "coordinates": [-71.12287514605157, 42.37453941212923]}, "type": "Feature", "id": 179, "properties": {"PoleID": "359-4", "Neighborhood": 10.0, "Description": "Cobrahead", "FixtureType": "A3", "NumLamps": 1, "EditDate": "2014", "StreetSuffix": "ST", "LEDchk": "Yes", "StreetName": "HILLIARD", "Lamp1": "359-4", "Intersection": "HILLIARD ST", "Owner": "City", "last_edited_date": "2023-02-16", "Street_ID": "359", "Pole_Num": "4"}},{"geometry": {"type": "Point", "coordinates": [-71.09753734850915, 42.37433153905928]}, "type": "Feature", "id": 180, "properties": {"PoleID": "567-70", "Neighborhood": 3.0, "Description": "Cobrahead", "FixtureType": "A2", "NumLamps": 1, "EditDate": "2014", "StreetSuffix": "ST", "LEDchk": "Yes", "StreetName": "PROSPECT", "Lamp1": "567-70", "Intersection": "HOUGHTON ST", "Owner": "City", "last_edited_date": "2023-02-16", "Street_ID": "567", "Pole_Num": "70"}},{"geometry": {"type": "Point", "coordinates": [-71.09286579217469, 42.37391889890957]}, "type": "Feature", "id": 181, "properties": {"PoleID": "737-87", "Neighborhood": 3.0, "Description": "Cobrahead", "FixtureType": "A3", "NumLamps": 1, "EditDate": "2014", "StreetSuffix": "ST", "LEDchk": "Yes", "StreetName": "WINDSOR", "Lamp1": "737-87", "Intersection": "WINDSOR ST", "Owner": "City", "last_edited_date": "2023-02-16", "Street_ID": "737", "Pole_Num": "87"}},{"geometry": {"type": "Point", "coordinates": [-71.10366595269477, 42.37402569614793]}, "type": "Feature", "id": 182, "properties": {"PoleID": "113-86", "Neighborhood": 6.0, "Description": "Cobrahead", "FixtureType": "A2", "NumLamps": 1, "EditDate": "2014", "StreetSuffix": "ST", "LEDchk": "Yes", "StreetName": "CAMBRIDGE", "Lamp1": "113-86", "Intersection": "MAPLE AVE", "Owner": "City", "last_edited_date": "2023-02-16", "Street_ID": "113", "Pole_Num": "86"}},{"geometry": {"type": "Point", "coordinates": [-71.12391068021681, 42.37392567464874]}, "type": "Feature", "id": 183, "properties": {"PoleID": "359-12", "Neighborhood": 10.0, "Description": "Cobrahead", "FixtureType": "A3", "NumLamps": 1, "EditDate": "2014", "StreetSuffix": "ST", "LEDchk": "Yes", "StreetName": "HILLIARD", "Lamp1": "359-12", "Intersection": "HILLIARD ST", "Owner": "City", "last_edited_date": "2023-02-16", "Street_ID": "359", "Pole_Num": "12"}},{"geometry": {"type": "Point", "coordinates": [-71.12508437835686, 42.37381940116621]}, "type": "Feature", "id": 184, "properties": {"PoleID": "94-1", "Neighborhood": 10.0, "Description": "Cobrahead", "FixtureType": "A3", "NumLamps": 1, "EditDate": "2014", "StreetSuffix": "ST", "LEDchk": "Yes", "StreetName": "BREWER", "Lamp1": "94-1", "Intersection": "BREWER ST", "Owner": "City", "last_edited_date": "2023-02-16", "Street_ID": "94", "Pole_Num": "1"}},{"geometry": {"type": "Point", "coordinates": [-71.12391114929954, 42.37378778325424]}, "type": "Feature", "id": 185, "properties": {"PoleID": "490-29", "Neighborhood": 10.0, "Description": "Cobrahead", "FixtureType": "A2", "NumLamps": 1, "EditDate": "2014", "StreetSuffix": "ST", "LEDchk": "Yes", "StreetName": "MT AUBURN", "Lamp1": "490-29", "Intersection": "MT AUBURN ST", "Owner": "City", "last_edited_date": "2023-02-16", "Street_ID": "490", "Pole_Num": "29"}},{"geometry": {"type": "Point", "coordinates": [-71.1066327171097, 42.37365563417242]}, "type": "Feature", "id": 186, "properties": {"PoleID": "228-13", "Neighborhood": 6.0, "Description": "Cobrahead", "FixtureType": "A3", "NumLamps": 1, "EditDate": "2014", "StreetSuffix": "AVE", "LEDchk": "Yes", "StreetName": "ELLSWORTH", "Lamp1": "228-13", "Intersection": "ELLSWORTH AVE", "Owner": "City", "last_edited_date": "2023-02-16", "Street_ID": "228", "Pole_Num": "13"}},{"geometry": {"type": "Point", "coordinates": [-71.11209688102595, 42.373620799083284]}, "type": "Feature", "id": 187, "properties": {"PoleID": "99-82", "Neighborhood": 6.0, "Description": "Cobrahead", "FixtureType": "A2", "NumLamps": 1, "EditDate": "2014", "LEDchk": "Yes", "StreetName": "BROADWAY", "Lamp1": "99-82", "Intersection": "BROADWAY", "Owner": "City", "last_edited_date": "2023-02-16", "Street_ID": "99", "Pole_Num": "82"}},{"geometry": {"type": "Point", "coordinates": [-71.12322247649283, 42.373644360591896]}, "type": "Feature", "id": 188, "properties": {"PoleID": "657-9", "Neighborhood": 10.0, "Description": "Cobrahead", "FixtureType": "A2", "NumLamps": 1, "EditDate": "2014", "StreetSuffix": "ST", "LEDchk": "Yes", "StreetName": "STORY", "Lamp1": "657-9", "Intersection": "MT AUBURN ST", "Owner": "City", "last_edited_date": "2023-02-16", "Street_ID": "657", "Pole_Num": "9"}},{"geometry": {"type": "Point", "coordinates": [-71.11490022615502, 42.373387747073814]}, "type": "Feature", "id": 189, "properties": {"PoleID": "571-5", "Neighborhood": 6.0, "Description": "Cobrahead", "FixtureType": "A1", "NumLamps": 1, "EditDate": "2014", "StreetSuffix": "ST", "LEDchk": "Yes", "StreetName": "QUINCY", "Lamp1": "571-5", "Intersection": "QUINCY ST", "Owner": "City", "last_edited_date": "2023-02-16", "Street_ID": "571", "Pole_Num": "5"}},{"geometry": {"type": "Point", "coordinates": [-71.10072780915316, 42.37329717458974]}, "type": "Feature", "id": 190, "properties": {"PoleID": "388-24", "Neighborhood": 6.0, "Description": "Cobrahead", "FixtureType": "A2", "NumLamps": 1, "EditDate": "2014", "StreetSuffix": "ST", "LEDchk": "Yes", "StreetName": "INMAN", "Lamp1": "388-24", "Intersection": "INMAN ST", "Owner": "City", "last_edited_date": "2023-02-16", "Street_ID": "388", "Pole_Num": "24"}},{"geometry": {"type": "Point", "coordinates": [-71.08715026430454, 42.37329392763663]}, "type": "Feature", "id": 191, "properties": {"PoleID": "304-52", "Neighborhood": 1.0, "Description": "Cobrahead", "FixtureType": "A2", "NumLamps": 1, "EditDate": "2014", "StreetSuffix": "ST", "LEDchk": "Yes", "StreetName": "GORE", "Lamp1": "304-52", "Intersection": "GORE ST", "Owner": "City", "last_edited_date": "2023-02-16", "Street_ID": "304", "Pole_Num": "52"}},{"geometry": {"type": "Point", "coordinates": [-71.11126904846904, 42.373293614837166]}, "type": "Feature", "id": 192, "properties": {"PoleID": "99-80", "Neighborhood": 6.0, "Description": "Cobrahead", "FixtureType": "A2", "NumLamps": 1, "EditDate": "2014", "LEDchk": "Yes", "StreetName": "BROADWAY", "Lamp1": "99-80", "Intersection": "BROADWAY", "Owner": "City", "last_edited_date": "2023-02-16", "Street_ID": "99", "Pole_Num": "80"}},{"geometry": {"type": "Point", "coordinates": [-71.12446176176623, 42.37326989032161]}, "type": "Feature", "id": 193, "properties": {"PoleID": "582-3", "Neighborhood": 10.0, "Description": "Cobrahead", "FixtureType": "A3", "NumLamps": 1, "EditDate": "2014", "StreetSuffix": "ST", "LEDchk": "Yes", "StreetName": "REVERE", "Lamp1": "582-3", "Intersection": "REVERE ST", "Owner": "City", "last_edited_date": "2023-02-16", "Street_ID": "582", "Pole_Num": "3"}},{"geometry": {"type": "Point", "coordinates": [-71.10009438531986, 42.37321464449981]}, "type": "Feature", "id": 194, "properties": {"PoleID": "324-41", "Neighborhood": 3.0, "Description": "Cobrahead", "FixtureType": "A2", "NumLamps": 1, "EditDate": "2014", "StreetSuffix": "ST", "LEDchk": "Yes", "StreetName": "HAMPSHIRE", "Lamp1": "324-41", "Intersection": "HAMPSHIRE ST", "Owner": "City", "last_edited_date": "2023-02-16", "Street_ID": "324", "Pole_Num": "41"}},{"geometry": {"type": "Point", "coordinates": [-71.0916893948001, 42.372918074188284]}, "type": "Feature", "id": 195, "properties": {"PoleID": "734-17", "Neighborhood": 3.0, "Description": "Cobrahead", "FixtureType": "A3", "NumLamps": 1, "EditDate": "2014", "StreetSuffix": "ST", "LEDchk": "Yes", "StreetName": "WILLOW", "Lamp1": "734-17", "Intersection": "WILLOW ST", "Owner": "City", "last_edited_date": "2023-02-16", "Street_ID": "734", "Pole_Num": "17"}},{"geometry": {"type": "Point", "coordinates": [-71.11500261431016, 42.373007747400706]}, "type": "Feature", "id": 196, "properties": {"PoleID": "571-3", "Neighborhood": 6.0, "Description": "Cobrahead", "FixtureType": "A1", "NumLamps": 1, "EditDate": "2014", "StreetSuffix": "ST", "LEDchk": "Yes", "StreetName": "QUINCY", "Lamp1": "571-3", "Intersection": "QUINCY ST", "Owner": "City", "last_edited_date": "2023-02-16", "Street_ID": "571", "Pole_Num": "3"}},{"geometry": {"type": "Point", "coordinates": [-71.0999720641217, 42.37291834666344]}, "type": "Feature", "id": 197, "properties": {"PoleID": "324-38", "Neighborhood": 6.0, "Description": "Cobrahead", "FixtureType": "A2", "NumLamps": 1, "EditDate": "2014", "StreetSuffix": "ST", "LEDchk": "Yes", "StreetName": "HAMPSHIRE", "Lamp1": "324-38", "Intersection": "HAMPSHIRE ST", "Owner": "City", "last_edited_date": "2023-02-16", "Street_ID": "324", "Pole_Num": "38"}},{"geometry": {"type": "Point", "coordinates": [-71.1212185585344, 42.372818654866116]}, "type": "Feature", "id": 198, "properties": {"PoleID": "490-20", "Neighborhood": 10.0, "Description": "Cobrahead", "FixtureType": "A2", "NumLamps": 1, "EditDate": "2014", "StreetSuffix": "ST", "LEDchk": "Yes", "StreetName": "MT AUBURN", "Lamp1": "490-20", "Intersection": "ELIOT ST", "Owner": "City", "last_edited_date": "2023-02-16", "Street_ID": "490", "Pole_Num": "20"}},{"geometry": {"type": "Point", "coordinates": [-71.09673163984117, 42.37222231550834]}, "type": "Feature", "id": 199, "properties": {"PoleID": "510-55", "Neighborhood": 3.0, "Description": "Cobrahead", "FixtureType": "A3", "NumLamps": 1, "EditDate": "2014", "StreetSuffix": "ST", "LEDchk": "Yes", "StreetName": "NORFOLK", "Lamp1": "510-55", "Intersection": "NORFOLK ST", "Owner": "City", "last_edited_date": "2023-02-16", "Street_ID": "510", "Pole_Num": "55"}},{"geometry": {"type": "Point", "coordinates": [-71.09768935758926, 42.37230606995178]}, "type": "Feature", "id": 200, "properties": {"PoleID": "672-22", "Neighborhood": 3.0, "Description": "Cobrahead", "FixtureType": "A3", "NumLamps": 1, "EditDate": "2014", "StreetSuffix": "ST", "LEDchk": "Yes", "StreetName": "TREMONT", "Lamp1": "672-22", "Intersection": "HAMPSHIRE ST", "Owner": "City", "last_edited_date": "2023-02-16", "Street_ID": "672", "Pole_Num": "22"}},{"geometry": {"type": "Point", "coordinates": [-71.09910733274663, 42.372181914978235]}, "type": "Feature", "id": 201, "properties": {"PoleID": "324-34", "Neighborhood": 6.0, "Description": "Cobrahead", "FixtureType": "A2", "NumLamps": 1, "EditDate": "2014", "StreetSuffix": "ST", "LEDchk": "Yes", "StreetName": "HAMPSHIRE", "Lamp1": "324-34", "Intersection": "PROSPECT ST", "Owner": "City", "last_edited_date": "2023-02-16", "Street_ID": "324", "Pole_Num": "34"}},{"geometry": {"type": "Point", "coordinates": [-71.11464642339347, 42.37222363098521]}, "type": "Feature", "id": 202, "properties": {"PoleID": "338-75", "Neighborhood": 6.0, "Description": "Cobrahead", "FixtureType": "A2", "NumLamps": 1, "EditDate": "2014", "StreetSuffix": "ST", "LEDchk": "Yes", "StreetName": "HARVARD", "Lamp1": "338-75", "Intersection": "HARVARD ST", "Owner": "City", "last_edited_date": "2023-02-16", "Street_ID": "338", "Pole_Num": "75"}},{"geometry": {"type": "Point", "coordinates": [-71.09869045098318, 42.37207903245877]}, "type": "Feature", "id": 203, "properties": {"PoleID": "324-31", "Neighborhood": 3.0, "Description": "Cobrahead", "FixtureType": "A2", "NumLamps": 1, "EditDate": "2014", "StreetSuffix": "ST", "LEDchk": "Yes", "StreetName": "HAMPSHIRE", "Lamp1": "324-31", "Intersection": "HAMPSHIRE ST", "Owner": "City", "last_edited_date": "2023-02-16", "Street_ID": "324", "Pole_Num": "31"}},{"geometry": {"type": "Point", "coordinates": [-71.10650338894689, 42.37195351321519]}, "type": "Feature", "id": 204, "properties": {"PoleID": "357-1", "Neighborhood": 6.0, "Description": "Cobrahead", "FixtureType": "A3", "NumLamps": 1, "EditDate": "2014", "StreetSuffix": "AVE", "LEDchk": "Yes", "StreetName": "HIGHLAND", "Lamp1": "357-1", "Intersection": "HIGHLAND AVE", "Owner": "City", "last_edited_date": "2023-02-16", "Street_ID": "357", "Pole_Num": "1"}},{"geometry": {"type": "Point", "coordinates": [-71.12145056310158, 42.37189451929158]}, "type": "Feature", "id": 205, "properties": {"PoleID": "225-4", "Neighborhood": 10.0, "Description": "Cobrahead", "FixtureType": "A3", "NumLamps": 1, "EditDate": "2014", "StreetSuffix": "ST", "LEDchk": "Yes", "StreetName": "ELIOT", "Lamp1": "225-4", "Intersection": "ELIOT ST", "Owner": "City", "last_edited_date": "2023-02-16", "Street_ID": "225", "Pole_Num": "4"}},{"geometry": {"type": "Point", "coordinates": [-71.0979799226043, 42.37180736236653]}, "type": "Feature", "id": 206, "properties": {"PoleID": "672-18", "Neighborhood": 3.0, "Description": "Cobrahead", "FixtureType": "A3", "NumLamps": 1, "EditDate": "2014", "StreetSuffix": "ST", "LEDchk": "Yes", "StreetName": "TREMONT", "Lamp1": "672-18", "Intersection": "TREMONT ST", "Owner": "City", "last_edited_date": "2023-02-16", "Street_ID": "672", "Pole_Num": "18"}},{"geometry": {"type": "Point", "coordinates": [-71.09854520314241, 42.37174684144076]}, "type": "Feature", "id": 207, "properties": {"PoleID": "324-30", "Neighborhood": 4.0, "Description": "Cobrahead", "FixtureType": "A2", "NumLamps": 1, "EditDate": "2014", "StreetSuffix": "ST", "LEDchk": "Yes", "StreetName": "HAMPSHIRE", "Lamp1": "324-30", "Intersection": "MURDOCK ST", "Owner": "City", "last_edited_date": "2023-02-16", "Street_ID": "324", "Pole_Num": "30"}},{"geometry": {"type": "Point", "coordinates": [-71.11303036702238, 42.37178306385556]}, "type": "Feature", "id": 208, "properties": {"PoleID": "338-71", "Neighborhood": 6.0, "Description": "Cobrahead", "FixtureType": "A2", "NumLamps": 1, "EditDate": "2014", "StreetSuffix": "ST", "LEDchk": "Yes", "StreetName": "HARVARD", "Lamp1": "338-71", "Intersection": "REMINGTON ST", "Owner": "City", "last_edited_date": "2023-02-16", "Street_ID": "338", "Pole_Num": "71"}},{"geometry": {"type": "Point", "coordinates": [-71.10183205556639, 42.371725969646306]}, "type": "Feature", "id": 209, "properties": {"PoleID": "388-18", "Neighborhood": 6.0, "Description": "Cobrahead", "FixtureType": "A2", "NumLamps": 1, "EditDate": "2014", "StreetSuffix": "ST", "LEDchk": "Yes", "StreetName": "INMAN", "Lamp1": "388-18", "Intersection": "INMAN ST", "Owner": "City", "last_edited_date": "2023-02-16", "Street_ID": "388", "Pole_Num": "18"}},{"geometry": {"type": "Point", "coordinates": [-71.09861227481912, 42.37167941091753]}, "type": "Feature", "id": 210, "properties": {"PoleID": "497-8", "Neighborhood": 4.0, "Description": "Cobrahead", "FixtureType": "A3", "NumLamps": 1, "EditDate": "2014", "StreetSuffix": "ST", "LEDchk": "Yes", "StreetName": "MURDOCK", "Lamp1": "497-8", "Intersection": "MURDOCK ST", "Owner": "City", "last_edited_date": "2023-02-16", "Street_ID": "497", "Pole_Num": "8"}},{"geometry": {"type": "Point", "coordinates": [-71.1103650216046, 42.371715552523206]}, "type": "Feature", "id": 211, "properties": {"PoleID": "227-15", "Neighborhood": 6.0, "Description": "Cobrahead", "FixtureType": "A3", "NumLamps": 1, "EditDate": "2014", "StreetSuffix": "ST", "LEDchk": "Yes", "StreetName": "ELLERY", "Lamp1": "227-15", "Intersection": "ELLERY ST", "Owner": "City", "last_edited_date": "2023-02-16", "Street_ID": "227", "Pole_Num": "15"}},{"geometry": {"type": "Point", "coordinates": [-71.12129149291634, 42.3717220341173]}, "type": "Feature", "id": 212, "properties": {"PoleID": "225-6", "Neighborhood": 10.0, "Description": "Cobrahead", "FixtureType": "A3", "NumLamps": 1, "EditDate": "2014", "StreetSuffix": "ST", "LEDchk": "Yes", "StreetName": "ELIOT", "Lamp1": "225-6", "Intersection": "ELIOT ST", "Owner": "City", "last_edited_date": "2023-02-16", "Street_ID": "225", "Pole_Num": "6"}},{"geometry": {"type": "Point", "coordinates": [-71.09815699777876, 42.37162508441717]}, "type": "Feature", "id": 213, "properties": {"PoleID": "324-29", "Neighborhood": 3.0, "Description": "Cobrahead", "FixtureType": "A2", "NumLamps": 1, "EditDate": "2014", "StreetSuffix": "ST", "LEDchk": "Yes", "StreetName": "HAMPSHIRE", "Lamp1": "324-29", "Intersection": "TREMONT ST", "Owner": "City", "last_edited_date": "2023-02-16", "Street_ID": "324", "Pole_Num": "29"}},{"geometry": {"type": "Point", "coordinates": [-71.10545806215322, 42.37161805676479]}, "type": "Feature", "id": 214, "properties": {"PoleID": "463-4", "Neighborhood": 6.0, "Description": "Cobrahead", "FixtureType": "A3", "NumLamps": 1, "EditDate": "2014", "StreetSuffix": "AVE", "LEDchk": "Yes", "StreetName": "MAPLE", "Lamp1": "463-4", "Intersection": "MAPLE AVE", "Owner": "City", "last_edited_date": "2023-02-16", "Street_ID": "463", "Pole_Num": "4"}},{"geometry": {"type": "Point", "coordinates": [-71.08463734526136, 42.372007309323386]}, "type": "Feature", "id": 215, "properties": {"PoleID": "636-2", "Neighborhood": 1.0, "Description": "Cobrahead", "FixtureType": "A3", "NumLamps": 1, "EditDate": "2014", "StreetSuffix": "ST", "LEDchk": "Yes", "StreetName": "SIXTH", "Lamp1": "636-2", "Intersection": "SIXTH ST", "Owner": "City", "last_edited_date": "2023-02-16", "Street_ID": "636", "Pole_Num": "2"}},{"geometry": {"type": "Point", "coordinates": [-71.10466505709928, 42.37147138563316]}, "type": "Feature", "id": 216, "properties": {"PoleID": "257-3", "Neighborhood": 6.0, "Description": "Cobrahead", "FixtureType": "A3", "NumLamps": 1, "EditDate": "2014", "StreetSuffix": "PK", "LEDchk": "Yes", "StreetName": "FAYETTE", "Lamp1": "257-3", "Intersection": "FAYETTE ST", "Owner": "City", "last_edited_date": "2023-02-16", "Street_ID": "257", "Pole_Num": "3"}},{"geometry": {"type": "Point", "coordinates": [-71.10686019452142, 42.37145795121605]},