{"type":"FeatureCollection","features":[{"geometry": {"type": "Point", "coordinates": [-71.14598773241147, 42.37563476148243]}, "type": "Feature", "id": 1, "properties": {"DIRECTION": "NB", "YCoord": 42.37564341, "STREET": "Aberdeen Ave.", "Limit": "U", "XCoord": -71.1459882, "DATE": "2004-09-22", "CROSSING_STREET": "Library", "SPEED_85TH": 36.0}},{"geometry": {"type": "Point", "coordinates": [-71.14598773241147, 42.37563476148243]}, "type": "Feature", "id": 2, "properties": {"DIRECTION": "SB", "YCoord": 42.37564341, "STREET": "Aberdeen Ave.", "Limit": "U", "XCoord": -71.1459882, "DATE": "2004-09-21", "CROSSING_STREET": "Library", "SPEED_85TH": 36.0}},{"geometry": {"type": "Point", "coordinates": [-71.14598773241147, 42.37563476148243]}, "type": "Feature", "id": 3, "properties": {"DIRECTION": "NB", "YCoord": 42.37564341, "STREET": "Aberdeen Ave.", "Limit": "U", "XCoord": -71.1459882, "DATE": "2003-11-18", "CROSSING_STREET": "Library", "SPEED_85TH": 37.0}},{"geometry": {"type": "Point", "coordinates": [-71.14598773241147, 42.37563476148243]}, "type": "Feature", "id": 4, "properties": {"DIRECTION": "SB", "YCoord": 42.37564341, "STREET": "Aberdeen Ave.", "Limit": "U", "XCoord": -71.1459882, "DATE": "2003-11-19", "CROSSING_STREET": "Library", "SPEED_85TH": 36.0}},{"geometry": {"type": "Point", "coordinates": [-71.13826022481378, 42.38401779631449]}, "type": "Feature", "id": 5, "properties": {"DIRECTION": "SB", "YCoord": 42.38402645, "STREET": "Alpine Street", "Limit": "25", "XCoord": -71.13826069, "DATE": "2002-01-16", "CROSSING_STREET": "44", "SPEED_85TH": 32.0}},{"geometry": {"type": "Point", "coordinates": [-71.13412859634008, 42.38022168193703]}, "type": "Feature", "id": 6, "properties": {"DIRECTION": "both", "YCoord": 42.38023034, "STREET": "Appleton Street", "Limit": "U", "XCoord": -71.13412906, "DATE": "2001-06-06", "CROSSING_STREET": "89", "SPEED_85TH": 33.0}},{"geometry": {"type": "Point", "coordinates": [-71.13384180559093, 42.37912657332893]}, "type": "Feature", "id": 7, "properties": {"DIRECTION": "both", "YCoord": 42.37913523, "STREET": "Appleton Street", "Limit": "U", "XCoord": -71.13384226, "DATE": "2000-11-28", "CROSSING_STREET": "Between Top Of Hill & Highland Street", "SPEED_85TH": 32.0}},{"geometry": {"type": "Point", "coordinates": [-71.1244664276212, 42.37592717123684]}, "type": "Feature", "id": 8, "properties": {"DIRECTION": "NB", "YCoord": 42.37593583, "STREET": "Ash Street", "Limit": "U", "XCoord": -71.12446688, "DATE": "1999-07-22", "CROSSING_STREET": "Between Acacia & Brattle", "SPEED_85TH": 26.0}},{"geometry": {"type": "Point", "coordinates": [-71.13412859634008, 42.38022168193703]}, "type": "Feature", "id": 9, "properties": {"DIRECTION": "NB", "YCoord": 42.38023034, "STREET": "Appleton Street", "Limit": "U", "XCoord": -71.13412906, "DATE": "1999-07-15", "CROSSING_STREET": "89", "SPEED_85TH": 31.0}},{"geometry": {"type": "Point", "coordinates": [-71.13412859634008, 42.38022168193703]}, "type": "Feature", "id": 10, "properties": {"DIRECTION": "SB", "YCoord": 42.38023034, "STREET": "Appleton Street", "Limit": "U", "XCoord": -71.13412906, "DATE": "1999-07-15", "CROSSING_STREET": "89", "SPEED_85TH": 30.0}},{"geometry": {"type": "Point", "coordinates": [-71.13040482983192, 42.39675300992335]}, "type": "Feature", "id": 11, "properties": {"DIRECTION": "EB", "YCoord": 42.39676167, "STREET": "Alberta Terrace", "Limit": "U", "XCoord": -71.13040529, "DATE": "1990-11-01", "SPEED_85TH": 22.0}},{"geometry": {"type": "Point", "coordinates": [-71.11028918229343, 42.35982626088294]}, "type": "Feature", "id": 12, "properties": {"DIRECTION": "EB", "YCoord": 42.35983491, "STREET": "Allston Street", "Limit": "U", "XCoord": -71.11028963, "DATE": "1989-01-02", "CROSSING_STREET": "Between Kenwood & Magazine", "SPEED_85TH": 31.0}},{"geometry": {"type": "Point", "coordinates": [-71.13841864961002, 42.383822862114855]}, "type": "Feature", "id": 13, "properties": {"DIRECTION": "SB", "YCoord": 42.38383152, "STREET": "Alpine Street", "Limit": "25", "XCoord": -71.13841911, "DATE": "1999-07-08", "CROSSING_STREET": "50", "SPEED_85TH": 29.0}},{"geometry": {"type": "Point", "coordinates": [-71.13727903807693, 42.385241220770475]}, "type": "Feature", "id": 14, "properties": {"DIRECTION": "SB", "YCoord": 42.38524988, "STREET": "Alpine Street", "Limit": "25", "XCoord": -71.1372795, "DATE": "1999-06-01", "CROSSING_STREET": "Concord Ave", "SPEED_85TH": 28.0}},{"geometry": {"type": "Point", "coordinates": [-71.13826022481378, 42.38401779631449]}, "type": "Feature", "id": 15, "properties": {"DIRECTION": "SB", "YCoord": 42.38402645, "STREET": "Alpine Street", "Limit": "25", "XCoord": -71.13826069, "DATE": "1999-07-07", "CROSSING_STREET": "44", "SPEED_85TH": 28.0}},{"geometry": {"type": "Point", "coordinates": [-71.10134047565181, 42.37061719815822]}, "type": "Feature", "id": 16, "properties": {"DIRECTION": "NB", "YCoord": 42.37062585, "STREET": "Amory Street", "Limit": "U", "XCoord": -71.10134092, "DATE": "1997-08-05", "CROSSING_STREET": "St. Mary Road", "SPEED_85TH": 26.0}},{"geometry": {"type": "Point", "coordinates": [-71.10159326169608, 42.370288619733266]}, "type": "Feature", "id": 17, "properties": {"DIRECTION": "WB", "YCoord": 42.37029727, "STREET": "Amory Street", "Limit": "U", "XCoord": -71.10159371, "DATE": "1999-05-25", "SPEED_85TH": 27.0}},{"geometry": {"type": "Point", "coordinates": [-71.09830568255899, 42.359813129633764]}, "type": "Feature", "id": 18, "properties": {"DIRECTION": "NB", "YCoord": 42.35982178, "STREET": "Albany Street", "Limit": "U", "XCoord": -71.09830613, "DATE": "2008-09-25", "CROSSING_STREET": "N of Pacific Street", "SPEED_85TH": 31.0}},{"geometry": {"type": "Point", "coordinates": [-71.09830568255899, 42.359813129633764]}, "type": "Feature", "id": 19, "properties": {"DIRECTION": "SB", "YCoord": 42.35982178, "STREET": "Albany Street", "Limit": "U", "XCoord": -71.09830613, "DATE": "2008-09-24", "CROSSING_STREET": "N of Pacific Street", "SPEED_85TH": 33.0}},{"geometry": {"type": "Point", "coordinates": [-71.10146998399418, 42.37043794445392]}, "type": "Feature", "id": 20, "properties": {"DIRECTION": "NB", "YCoord": 42.3704466, "STREET": "Amory Street", "Limit": "U", "XCoord": -71.10147043, "DATE": "2014-05-14", "CROSSING_STREET": "Amory Place", "SPEED_85TH": 23.0}},{"geometry": {"type": "Point", "coordinates": [-71.10880136216214, 42.356628579315306]}, "type": "Feature", "id": 21, "properties": {"DIRECTION": "NB", "YCoord": 42.35663723, "STREET": "Brookline Street", "Limit": "25", "XCoord": -71.10880181, "DATE": "2006-06-14", "CROSSING_STREET": "Chestnut Street", "SPEED_85TH": 29.0}},{"geometry": {"type": "Point", "coordinates": [-71.10449825408473, 42.360697907770216]}, "type": "Feature", "id": 22, "properties": {"DIRECTION": "NB", "YCoord": 42.36070656, "STREET": "Brookline Street", "Limit": "25", "XCoord": -71.1044987, "DATE": "2006-05-23", "CROSSING_STREET": "Tudor Street", "SPEED_85TH": 30.0}},{"geometry": {"type": "Point", "coordinates": [-71.14284917057773, 42.37572875835237]}, "type": "Feature", "id": 23, "properties": {"DIRECTION": "EB", "YCoord": 42.37573741, "STREET": "Brattle Street", "Limit": "30", "XCoord": -71.14284963, "DATE": "2003-07-29", "CROSSING_STREET": "Between Larch Rd & Fresh Pond Ln", "SPEED_85TH": 33.0}},{"geometry": {"type": "Point", "coordinates": [-71.14284917057773, 42.37572875835237]}, "type": "Feature", "id": 24, "properties": {"DIRECTION": "WB", "YCoord": 42.37573741, "STREET": "Brattle Street", "Limit": "25", "XCoord": -71.14284963, "DATE": "2003-07-30", "CROSSING_STREET": "Between Larch Rd & Fresh Pond Ln", "SPEED_85TH": 38.0}},{"geometry": {"type": "Point", "coordinates": [-71.15808863023112, 42.39362629500439]}, "type": "Feature", "id": 25, "properties": {"DIRECTION": "SB", "YCoord": 42.39363495, "STREET": "Blanchard Road", "Limit": "U", "XCoord": -71.1580891, "DATE": "2003-05-21", "CROSSING_STREET": "Colby Street", "SPEED_85TH": 34.0}},{"geometry": {"type": "Point", "coordinates": [-71.15808863023112, 42.39362629500439]}, "type": "Feature", "id": 26, "properties": {"DIRECTION": "NB", "YCoord": 42.39363495, "STREET": "Blanchard Road", "Limit": "U", "XCoord": -71.1580891, "DATE": "2003-05-29", "CROSSING_STREET": "Normandy Avenue", "SPEED_85TH": 32.0}},{"geometry": {"type": "Point", "coordinates": [-71.07820529204831, 42.36513323901747]}, "type": "Feature", "id": 27, "properties": {"DIRECTION": "EB", "YCoord": 42.36514189, "STREET": "Binney Steet", "Limit": "U", "XCoord": -71.07820573, "DATE": "2002-07-31", "CROSSING_STREET": "First Street", "SPEED_85TH": 38.0}},{"geometry": {"type": "Point", "coordinates": [-71.08607126109855, 42.36614222234194]}, "type": "Feature", "id": 28, "properties": {"DIRECTION": "WB", "YCoord": 42.36615088, "STREET": "Binney Street", "Limit": "U", "XCoord": -71.0860717, "DATE": "2002-07-31", "CROSSING_STREET": "Sixth Street", "SPEED_85TH": 37.0}},{"geometry": {"type": "Point", "coordinates": [-71.08607126109855, 42.36614222234194]}, "type": "Feature", "id": 29, "properties": {"DIRECTION": "EB", "YCoord": 42.36615088, "STREET": "Binney Street", "Limit": "U", "XCoord": -71.0860717, "DATE": "2002-08-01", "CROSSING_STREET": "Sixth Street", "SPEED_85TH": 39.0}},{"geometry": {"type": "Point", "coordinates": [-71.08607126109855, 42.36614222234194]}, "type": "Feature", "id": 30, "properties": {"DIRECTION": "WB", "YCoord": 42.36615088, "STREET": "Binney Street", "Limit": "U", "XCoord": -71.0860717, "DATE": "2002-08-01", "CROSSING_STREET": "Sixth Street", "SPEED_85TH": 36.0}},{"geometry": {"type": "Point", "coordinates": [-71.08607126109855, 42.36614222234194]}, "type": "Feature", "id": 31, "properties": {"DIRECTION": "EB", "YCoord": 42.36615088, "STREET": "Binney Street", "Limit": "U", "XCoord": -71.0860717, "DATE": "2002-07-30", "CROSSING_STREET": "Sixth Street", "SPEED_85TH": 39.0}},{"geometry": {"type": "Point", "coordinates": [-71.08607126109855, 42.36614222234194]}, "type": "Feature", "id": 32, "properties": {"DIRECTION": "WB", "YCoord": 42.36615088, "STREET": "Binney Street", "Limit": "U", "XCoord": -71.0860717, "DATE": "2002-07-30", "CROSSING_STREET": "Sixth Street", "SPEED_85TH": 37.0}},{"geometry": {"type": "Point", "coordinates": [-71.13270524605116, 42.39026299633937]}, "type": "Feature", "id": 33, "properties": {"DIRECTION": "both", "YCoord": 42.39027165, "STREET": "Bolton Street", "Limit": "U", "XCoord": -71.13270571, "DATE": "2002-02-12", "CROSSING_STREET": "East Of Sherman Street", "SPEED_85TH": 22.0}},{"geometry": {"type": "Point", "coordinates": [-71.09014994782864, 42.3650563141038]}, "type": "Feature", "id": 34, "properties": {"DIRECTION": "WB", "YCoord": 42.36506497, "STREET": "Broadway", "Limit": "U", "XCoord": -71.09015039, "DATE": "2001-11-08", "CROSSING_STREET": "To Harvard Square", "SPEED_85TH": 37.0}},{"geometry": {"type": "Point", "coordinates": [-71.08596249306817, 42.363351839556834]}, "type": "Feature", "id": 35, "properties": {"DIRECTION": "EB", "YCoord": 42.36336049, "STREET": "Broadway", "Limit": "U", "XCoord": -71.08596294, "DATE": "2001-11-08", "CROSSING_STREET": "Broadway @ Volpe Center", "SPEED_85TH": 34.0}},{"geometry": {"type": "Point", "coordinates": [-71.1382976214674, 42.38744535687703]}, "type": "Feature", "id": 36, "properties": {"DIRECTION": "WB", "YCoord": 42.38745401, "STREET": "Bay State Road", "Limit": "U", "XCoord": -71.13829808, "DATE": "2001-06-21", "CROSSING_STREET": "Field Street", "SPEED_85TH": 29.0}},{"geometry": {"type": "Point", "coordinates": [-71.14100583074178, 42.387097467898506]}, "type": "Feature", "id": 37, "properties": {"DIRECTION": "EB", "YCoord": 42.38710612, "STREET": "Bay State Road", "Limit": "U", "XCoord": -71.14100629, "DATE": "2001-06-21", "CROSSING_STREET": "Fresh Pond Parkway", "SPEED_85TH": 30.0}},{"geometry": {"type": "Point", "coordinates": [-71.15713311591246, 42.38967456433636]}, "type": "Feature", "id": 38, "properties": {"DIRECTION": "NB", "YCoord": 42.38968322, "STREET": "Blanchard Road", "Limit": "U", "XCoord": -71.15713358, "DATE": "2000-06-13", "CROSSING_STREET": "4", "SPEED_85TH": 30.0}},{"geometry": {"type": "Point", "coordinates": [-71.15713311591246, 42.38967456433636]}, "type": "Feature", "id": 39, "properties": {"DIRECTION": "NB", "YCoord": 42.38968322, "STREET": "Blanchard Road", "Limit": "U", "XCoord": -71.15713358, "DATE": "2000-06-15", "CROSSING_STREET": "4", "SPEED_85TH": 30.0}},{"geometry": {"type": "Point", "coordinates": [-71.15713311591246, 42.38967456433636]}, "type": "Feature", "id": 40, "properties": {"DIRECTION": "SB", "YCoord": 42.38968322, "STREET": "Blanchard Road", "Limit": "U", "XCoord": -71.15713358, "DATE": "2000-06-13", "CROSSING_STREET": "4", "SPEED_85TH": 35.0}},{"geometry": {"type": "Point", "coordinates": [-71.15713311591246, 42.38967456433636]}, "type": "Feature", "id": 41, "properties": {"DIRECTION": "SB", "YCoord": 42.38968322, "STREET": "Blanchard Road", "Limit": "U", "XCoord": -71.15713358, "DATE": "2000-06-15", "CROSSING_STREET": "4", "SPEED_85TH": 35.0}},{"geometry": {"type": "Point", "coordinates": [-71.1205910435474, 42.3826104916112]}, "type": "Feature", "id": 42, "properties": {"DIRECTION": "both", "YCoord": 42.38261915, "STREET": "Bowdoin Street", "Limit": "U", "XCoord": -71.1205915, "DATE": "1999-11-09", "CROSSING_STREET": "Between Martin & Hudson Street", "SPEED_85TH": 24.0}},{"geometry": {"type": "Point", "coordinates": [-71.1205910435474, 42.3826104916112]}, "type": "Feature", "id": 43, "properties": {"DIRECTION": "both", "YCoord": 42.38261915, "STREET": "Bowdoin Street", "Limit": "U", "XCoord": -71.1205915, "DATE": "1999-11-18", "CROSSING_STREET": "Between Martin & Hudson", "SPEED_85TH": 23.0}},{"geometry": {"type": "Point", "coordinates": [-71.10534817996076, 42.368013873179024]}, "type": "Feature", "id": 44, "properties": {"DIRECTION": "NB", "YCoord": 42.36802253, "STREET": "Bigelow Street", "Limit": "U", "XCoord": -71.10534863, "DATE": "1989-11-02", "SPEED_85TH": 28.0}},{"geometry": {"type": "Point", "coordinates": [-71.15727843109224, 42.390926863527326]}, "type": "Feature", "id": 45, "properties": {"DIRECTION": "SB", "YCoord": 42.39093552, "STREET": "Blanchard Road", "Limit": "U", "XCoord": -71.1572789, "DATE": "1991-05-13", "CROSSING_STREET": "Between Grove St & Concord Ave", "SPEED_85TH": 37.0}},{"geometry": {"type": "Point", "coordinates": [-71.1576441884037, 42.38764842051254]}, "type": "Feature", "id": 46, "properties": {"DIRECTION": "NB", "YCoord": 42.38765708, "STREET": "Blanchard Road", "Limit": "U", "XCoord": -71.15764466, "DATE": "1991-05-13", "CROSSING_STREET": "Between Grove St & Concord Ave", "SPEED_85TH": 37.0}},{"geometry": {"type": "Point", "coordinates": [-71.15808863023112, 42.39362629500439]}, "type": "Feature", "id": 47, "properties": {"DIRECTION": "NB", "YCoord": 42.39363495, "STREET": "Blanchard Road", "Limit": "U", "XCoord": -71.1580891, "DATE": "1991-05-31", "CROSSING_STREET": "Opp So Normandy", "SPEED_85TH": 34.0}},{"geometry": {"type": "Point", "coordinates": [-71.15808863023112, 42.39362629500439]}, "type": "Feature", "id": 48, "properties": {"DIRECTION": "SB", "YCoord": 42.39363495, "STREET": "Blanchard Road", "Limit": "U", "XCoord": -71.1580891, "DATE": "1991-06-03", "CROSSING_STREET": "Opp S. Normandy", "SPEED_85TH": 36.0}},{"geometry": {"type": "Point", "coordinates": [-71.15838271840049, 42.39455965167226]}, "type": "Feature", "id": 49, "properties": {"DIRECTION": "SB", "YCoord": 42.39456831, "STREET": "Blanchard Road", "Limit": "U", "XCoord": -71.15838319, "DATE": "1987-07-13", "CROSSING_STREET": "Belmont Line", "SPEED_85TH": 38.0}},{"geometry": {"type": "Point", "coordinates": [-71.15808863023112, 42.39362629500439]}, "type": "Feature", "id": 50, "properties": {"DIRECTION": "NB", "YCoord": 42.39363495, "STREET": "Blanchard Road", "Limit": "U", "XCoord": -71.1580891, "DATE": "1987-07-13", "CROSSING_STREET": "Colby", "SPEED_85TH": 37.0}},{"geometry": {"type": "Point", "coordinates": [-71.1604202349144, 42.38645796225253]}, "type": "Feature", "id": 51, "properties": {"DIRECTION": "SB", "YCoord": 42.38646662, "STREET": "Blanchard Road", "Limit": "U", "XCoord": -71.1604207, "DATE": "1997-01-12", "CROSSING_STREET": "Grove", "SPEED_85TH": 29.0}},{"geometry": {"type": "Point", "coordinates": [-71.15737600422959, 42.38868847074475]}, "type": "Feature", "id": 52, "properties": {"DIRECTION": "NB", "YCoord": 42.38869713, "STREET": "Blanchard Road", "Limit": "U", "XCoord": -71.15737647, "DATE": "1987-01-12", "CROSSING_STREET": "Glenn", "SPEED_85TH": 39.0}},{"geometry": {"type": "Point", "coordinates": [-71.13015984203587, 42.37788435544538]}, "type": "Feature", "id": 53, "properties": {"DIRECTION": "EB", "YCoord": 42.37789301, "STREET": "Brattle Street", "Limit": "25", "XCoord": -71.1301603, "DATE": "1991-01-23", "CROSSING_STREET": "Cragie", "SPEED_85TH": 30.0}},{"geometry": {"type": "Point", "coordinates": [-71.13015984203587, 42.37788435544538]}, "type": "Feature", "id": 54, "properties": {"DIRECTION": "WB", "YCoord": 42.37789301, "STREET": "Brattle Street", "Limit": "25", "XCoord": -71.1301603, "DATE": "1991-01-23", "CROSSING_STREET": "Cragie", "SPEED_85TH": 29.0}},{"geometry": {"type": "Point", "coordinates": [-71.09639491189849, 42.3674835289451]}, "type": "Feature", "id": 55, "properties": {"DIRECTION": "EB", "YCoord": 42.36749218, "STREET": "Broadway", "Limit": "U", "XCoord": -71.09639536, "DATE": "1999-06-28", "CROSSING_STREET": "Boardman Street", "SPEED_85TH": 31.0}},{"geometry": {"type": "Point", "coordinates": [-71.09639491189849, 42.3674835289451]}, "type": "Feature", "id": 56, "properties": {"DIRECTION": "WB", "YCoord": 42.36749218, "STREET": "Broadway", "Limit": "U", "XCoord": -71.09639536, "DATE": "1999-06-28", "CROSSING_STREET": "Boardman Street", "SPEED_85TH": 25.0}},{"geometry": {"type": "Point", "coordinates": [-71.09639491189849, 42.3674835289451]}, "type": "Feature", "id": 57, "properties": {"DIRECTION": "EB", "YCoord": 42.36749218, "STREET": "Broadway", "Limit": "U", "XCoord": -71.09639536, "DATE": "1999-06-15", "CROSSING_STREET": "Boardman Street", "SPEED_85TH": 29.0}},{"geometry": {"type": "Point", "coordinates": [-71.09639491189849, 42.3674835289451]}, "type": "Feature", "id": 58, "properties": {"DIRECTION": "WB", "YCoord": 42.36749218, "STREET": "Broadway", "Limit": "U", "XCoord": -71.09639536, "DATE": "1999-06-15", "CROSSING_STREET": "Boardman Street", "SPEED_85TH": 30.0}},{"geometry": {"type": "Point", "coordinates": [-71.1048391367894, 42.370814660016165]}, "type": "Feature", "id": 59, "properties": {"DIRECTION": "EB", "YCoord": 42.37082331, "STREET": "Broadway", "Limit": "U", "XCoord": -71.10483959, "DATE": "1999-06-25", "CROSSING_STREET": "Lee Street", "SPEED_85TH": 30.0}},{"geometry": {"type": "Point", "coordinates": [-71.1048391367894, 42.370814660016165]}, "type": "Feature", "id": 60, "properties": {"DIRECTION": "WB", "YCoord": 42.37082331, "STREET": "Broadway", "Limit": "U", "XCoord": -71.10483959, "DATE": "1999-06-25", "CROSSING_STREET": "Lee Street", "SPEED_85TH": 29.0}},{"geometry": {"type": "Point", "coordinates": [-71.10199908123147, 42.36969296931701]}, "type": "Feature", "id": 61, "properties": {"DIRECTION": "EB", "YCoord": 42.36970162, "STREET": "Broadway", "Limit": "U", "XCoord": -71.10199953, "DATE": "1999-06-28", "CROSSING_STREET": "Between Inman St & Prospect St", "SPEED_85TH": 28.0}},{"geometry": {"type": "Point", "coordinates": [-71.10245366731405, 42.369873294021616]}, "type": "Feature", "id": 62, "properties": {"DIRECTION": "WB", "YCoord": 42.36988195, "STREET": "Broadway", "Limit": "U", "XCoord": -71.10245412, "DATE": "1999-06-28", "CROSSING_STREET": "Between Amory & Inman Street", "SPEED_85TH": 31.0}},{"geometry": {"type": "Point", "coordinates": [-71.10972764281458, 42.37274342159451]}, "type": "Feature", "id": 63, "properties": {"DIRECTION": "EB", "YCoord": 42.37275208, "STREET": "Broadway", "Limit": "U", "XCoord": -71.10972809, "DATE": "1991-05-01", "CROSSING_STREET": "Ellery", "SPEED_85TH": 33.0}},{"geometry": {"type": "Point", "coordinates": [-71.10237326017858, 42.36292708962423]}, "type": "Feature", "id": 64, "properties": {"DIRECTION": "NB", "YCoord": 42.36293574, "STREET": "Brookline", "Limit": "25", "XCoord": -71.10237371, "DATE": "1992-05-13", "CROSSING_STREET": "Auburn & Green", "SPEED_85TH": 27.0}},{"geometry": {"type": "Point", "coordinates": [-71.15752203607802, 42.38813379214557]}, "type": "Feature", "id": 65, "properties": {"DIRECTION": "NB", "YCoord": 42.38814245, "STREET": "Blanchard Road", "Limit": "U", "XCoord": -71.1575225, "DATE": "2003-09-25", "SPEED_85TH": 34.0}},{"geometry": {"type": "Point", "coordinates": [-71.15808862978321, 42.39362637782866]}, "type": "Feature", "id": 66, "properties": {"DIRECTION": "NB", "YCoord": 42.39363503, "STREET": "Blanchard Road", "Limit": "U", "XCoord": -71.1580891, "DATE": "2007-08-30", "CROSSING_STREET": "Colby Street", "SPEED_85TH": 32.0}},{"geometry": {"type": "Point", "coordinates": [-71.15755399120751, 42.38800629690838]}, "type": "Feature", "id": 67, "properties": {"DIRECTION": "SB", "YCoord": 42.38801495, "STREET": "Blanchard Road", "Limit": "U", "XCoord": -71.15755446, "DATE": "2003-09-25", "SPEED_85TH": 39.0}},{"geometry": {"type": "Point", "coordinates": [-71.15808862978321, 42.39362637782866]}, "type": "Feature", "id": 68, "properties": {"DIRECTION": "SB", "YCoord": 42.39363503, "STREET": "Blanchard Road", "Limit": "U", "XCoord": -71.1580891, "DATE": "2007-08-29", "CROSSING_STREET": "Colby Street", "SPEED_85TH": 31.0}},{"geometry": {"type": "Point", "coordinates": [-71.13591211363344, 42.37704027196854]}, "type": "Feature", "id": 69, "properties": {"DIRECTION": "WB", "YCoord": 42.37704893, "STREET": "Brattle Street", "Limit": "30", "XCoord": -71.13591257, "DATE": "2007-04-26", "CROSSING_STREET": "Channing Street", "SPEED_85TH": 32.0}},{"geometry": {"type": "Point", "coordinates": [-71.13591211363344, 42.37704027196854]}, "type": "Feature", "id": 70, "properties": {"DIRECTION": "EB", "YCoord": 42.37704893, "STREET": "Brattle Street", "Limit": "25", "XCoord": -71.13591257, "DATE": "2007-04-26", "CROSSING_STREET": "Channing Street", "SPEED_85TH": 33.0}},{"geometry": {"type": "Point", "coordinates": [-71.13155917421197, 42.37751469243319]}, "type": "Feature", "id": 71, "properties": {"DIRECTION": "WB", "YCoord": 42.37752335, "STREET": "Brattle Street", "Limit": "25", "XCoord": -71.13155963, "DATE": "2007-04-10", "CROSSING_STREET": "Riedesel Ave.", "SPEED_85TH": 33.0}},{"geometry": {"type": "Point", "coordinates": [-71.13155917421197, 42.37751469243319]}, "type": "Feature", "id": 72, "properties": {"DIRECTION": "EB", "YCoord": 42.37752335, "STREET": "Brattle Street", "Limit": "25", "XCoord": -71.13155963, "DATE": "2007-04-10", "CROSSING_STREET": "Riedesel Ave.", "SPEED_85TH": 33.0}},{"geometry": {"type": "Point", "coordinates": [-71.10528367703206, 42.35995402345911]}, "type": "Feature", "id": 73, "properties": {"DIRECTION": "NB", "YCoord": 42.35996268, "STREET": "Brookline Street", "Limit": "25", "XCoord": -71.10528413, "DATE": "2010-08-26", "CROSSING_STREET": "Valentine Street", "SPEED_85TH": 29.0}},{"geometry": {"type": "Point", "coordinates": [-71.09103249954565, 42.37003052119535]}, "type": "Feature", "id": 74, "properties": {"DIRECTION": "NB", "YCoord": 42.37003918, "STREET": "Berkshire Street", "Limit": "25", "XCoord": -71.09103294, "DATE": "2009-08-25", "CROSSING_STREET": "Hardwick Street", "SPEED_85TH": 25.0}},{"geometry": {"type": "Point", "coordinates": [-71.09014526042598, 42.37158750928537]}, "type": "Feature", "id": 75, "properties": {"DIRECTION": "NB", "YCoord": 42.37159616, "STREET": "Berkshire Street", "Limit": "25", "XCoord": -71.09014571, "DATE": "2009-09-02", "CROSSING_STREET": "Marcella Street", "SPEED_85TH": 27.0}},{"geometry": {"type": "Point", "coordinates": [-71.10614898464857, 42.35913546734901]}, "type": "Feature", "id": 76, "properties": {"DIRECTION": "NB", "YCoord": 42.35914412, "STREET": "Brookline Street", "Limit": "25", "XCoord": -71.10614943, "DATE": "2013-01-09", "CROSSING_STREET": "Erie Street", "SPEED_85TH": 20.0}},{"geometry": {"type": "Point", "coordinates": [-71.08985978386991, 42.36965389263715]}, "type": "Feature", "id": 77, "properties": {"DIRECTION": "NB", "YCoord": 42.36966255, "STREET": "Cardinal Mederios Ave", "Limit": "U", "XCoord": -71.08986023, "DATE": "2006-05-31", "CROSSING_STREET": "Hardwick Street", "SPEED_85TH": 32.0}},{"geometry": {"type": "Point", "coordinates": [-71.08985978386991, 42.36965389263715]}, "type": "Feature", "id": 78, "properties": {"DIRECTION": "SB", "YCoord": 42.36966255, "STREET": "Cardinal Mederios Ave", "Limit": "U", "XCoord": -71.08986023, "DATE": "2006-05-31", "CROSSING_STREET": "Hardwick Street", "SPEED_85TH": 31.0}},{"geometry": {"type": "Point", "coordinates": [-71.13967495017319, 42.386301672793124]}, "type": "Feature", "id": 79, "properties": {"DIRECTION": "WB", "YCoord": 42.38631033, "STREET": "Concord Avenue", "Limit": "U", "XCoord": -71.13967541, "DATE": "2005-06-29", "CROSSING_STREET": "E. Birch Street", "SPEED_85TH": 30.0}},{"geometry": {"type": "Point", "coordinates": [-71.13967495017319, 42.386301672793124]}, "type": "Feature", "id": 80, "properties": {"DIRECTION": "EB", "YCoord": 42.38631033, "STREET": "Concord Avenue", "Limit": "U", "XCoord": -71.13967541, "DATE": "2005-06-27", "CROSSING_STREET": "E Birch Street", "SPEED_85TH": 30.0}},{"geometry": {"type": "Point", "coordinates": [-71.13727903807693, 42.385241220770475]}, "type": "Feature", "id": 81, "properties": {"DIRECTION": "EB", "YCoord": 42.38524988, "STREET": "Concord Avenue", "Limit": "U", "XCoord": -71.1372795, "DATE": "2005-06-22", "CROSSING_STREET": "E Alpine Street", "SPEED_85TH": 32.0}},{"geometry": {"type": "Point", "coordinates": [-71.13727903807693, 42.385241220770475]}, "type": "Feature", "id": 82, "properties": {"DIRECTION": "WB", "YCoord": 42.38524988, "STREET": "Concord Avenue", "Limit": "U", "XCoord": -71.1372795, "DATE": "2005-06-22", "CROSSING_STREET": "E Alpine Street", "SPEED_85TH": 32.0}},{"geometry": {"type": "Point", "coordinates": [-71.12855609045137, 42.380958928179226]}, "type": "Feature", "id": 83, "properties": {"DIRECTION": "EB", "YCoord": 42.38096758, "STREET": "Concord Avenue", "Limit": "U", "XCoord": -71.12855655, "DATE": "2004-06-08", "CROSSING_STREET": "Between Bond & Mannassas", "SPEED_85TH": 34.0}},{"geometry": {"type": "Point", "coordinates": [-71.12855609045137, 42.380958928179226]}, "type": "Feature", "id": 84, "properties": {"DIRECTION": "WB", "YCoord": 42.38096758, "STREET": "Concord Avenue", "Limit": "U", "XCoord": -71.12855655, "DATE": "2004-06-09", "CROSSING_STREET": "Between Bond & Mannassas", "SPEED_85TH": 34.0}},{"geometry": {"type": "Point", "coordinates": [-71.12991702914194, 42.38174658945633]}, "type": "Feature", "id": 85, "properties": {"DIRECTION": "EB", "YCoord": 42.38175524, "STREET": "Concord Avenue", "Limit": "U", "XCoord": -71.12991749, "DATE": "2004-04-26", "CROSSING_STREET": "Toward Rotary", "SPEED_85TH": 40.0}},{"geometry": {"type": "Point", "coordinates": [-71.15727843109224, 42.390926863527326]}, "type": "Feature", "id": 86, "properties": {"DIRECTION": "WB", "YCoord": 42.39093552, "STREET": "Concord Avenue", "Limit": "U", "XCoord": -71.1572789, "DATE": "2004-04-26", "CROSSING_STREET": "Blanchard Road", "SPEED_85TH": 36.0}},{"geometry": {"type": "Point", "coordinates": [-71.13628917957787, 42.39538682237492]}, "type": "Feature", "id": 87, "properties": {"DIRECTION": "EB", "YCoord": 42.39539548, "STREET": "Clifton Street", "Limit": "U", "XCoord": -71.13628964, "DATE": "2004-04-28", "CROSSING_STREET": "Between Harvey & Rindge Ave", "SPEED_85TH": 30.0}},{"geometry": {"type": "Point", "coordinates": [-71.08985978386991, 42.36965389263715]}, "type": "Feature", "id": 88, "properties": {"DIRECTION": "NB", "YCoord": 42.36966255, "STREET": "Cardinal Mederios Avenue", "Limit": "U", "XCoord": -71.08986023, "DATE": "2003-06-25", "CROSSING_STREET": "Harwick Street", "SPEED_85TH": 32.0}},{"geometry": {"type": "Point", "coordinates": [-71.08985978386991, 42.36965389263715]}, "type": "Feature", "id": 89, "properties": {"DIRECTION": "SB", "YCoord": 42.36966255, "STREET": "Cardinal Medeiros Avenue", "Limit": "U", "XCoord": -71.08986023, "DATE": "2003-06-25", "CROSSING_STREET": "Hardwick Street", "SPEED_85TH": 31.0}},{"geometry": {"type": "Point", "coordinates": [-71.12962101402637, 42.39795998771349]}, "type": "Feature", "id": 90, "properties": {"DIRECTION": "NB", "YCoord": 42.39796865, "STREET": "Cameron Avenue", "Limit": "U", "XCoord": -71.12962147, "DATE": "2003-03-26", "CROSSING_STREET": "Fair Oaks Street", "SPEED_85TH": 26.0}},{"geometry": {"type": "Point", "coordinates": [-71.12962101402637, 42.39795998771349]}, "type": "Feature", "id": 91, "properties": {"DIRECTION": "SB", "YCoord": 42.39796865, "STREET": "Cameron Avenue", "Limit": "U", "XCoord": -71.12962147, "DATE": "2003-03-26", "CROSSING_STREET": "Fair Oaks St", "SPEED_85TH": 27.0}},{"geometry": {"type": "Point", "coordinates": [-71.13092335936345, 42.397988456048864]}, "type": "Feature", "id": 92, "properties": {"DIRECTION": "NB", "YCoord": 42.39799711, "STREET": "Cedar Street", "Limit": "U", "XCoord": -71.13092382, "DATE": "2003-03-12", "CROSSING_STREET": "Mass ave", "SPEED_85TH": 28.0}},{"geometry": {"type": "Point", "coordinates": [-71.13080624091981, 42.393578957948094]}, "type": "Feature", "id": 93, "properties": {"DIRECTION": "SB", "YCoord": 42.39358762, "STREET": "Cedar Street", "Limit": "U", "XCoord": -71.1308067, "DATE": "2003-03-12", "CROSSING_STREET": "Rindge Ave", "SPEED_85TH": 27.0}},{"geometry": {"type": "Point", "coordinates": [-71.13092335936345, 42.397988456048864]}, "type": "Feature", "id": 94, "properties": {"DIRECTION": "NB", "YCoord": 42.39799711, "STREET": "Cedar Street", "Limit": "U", "XCoord": -71.13092382, "DATE": "2003-03-13", "CROSSING_STREET": "Mass Ave", "SPEED_85TH": 29.0}},{"geometry": {"type": "Point", "coordinates": [-71.13080624091981, 42.393578957948094]}, "type": "Feature", "id": 95, "properties": {"DIRECTION": "NB", "YCoord": 42.39358762, "STREET": "Cedar Street", "Limit": "U", "XCoord": -71.1308067, "DATE": "2003-03-19", "CROSSING_STREET": "Rindge Ave", "SPEED_85TH": 29.0}},{"geometry": {"type": "Point", "coordinates": [-71.13080624091981, 42.393578957948094]}, "type": "Feature", "id": 96, "properties": {"DIRECTION": "SB", "YCoord": 42.39358762, "STREET": "Cedar Street", "Limit": "U", "XCoord": -71.1308067, "DATE": "2003-03-13", "CROSSING_STREET": "Rindge Ave", "SPEED_85TH": 28.0}},{"geometry": {"type": "Point", "coordinates": [-71.13083060568587, 42.39473178659475]}, "type": "Feature", "id": 97, "properties": {"DIRECTION": "SB", "YCoord": 42.39474045, "STREET": "Cedar Street", "Limit": "U", "XCoord": -71.13083107, "DATE": "2003-03-19", "CROSSING_STREET": "Norris Street", "SPEED_85TH": 30.0}},{"geometry": {"type": "Point", "coordinates": [-71.11263751437853, 42.358838373555265]}, "type": "Feature", "id": 98, "properties": {"DIRECTION": "EB", "YCoord": 42.35884703, "STREET": "Chestnut Street", "Limit": "U", "XCoord": -71.11263797, "DATE": "2003-03-15", "CROSSING_STREET": "Between Pleasant & Magazine Street", "SPEED_85TH": 23.0}},{"geometry": {"type": "Point", "coordinates": [-71.11263751437853, 42.358838373555265]}, "type": "Feature", "id": 99, "properties": {"DIRECTION": "EB", "YCoord": 42.35884703, "STREET": "Chestnut Street", "Limit": "U", "XCoord": -71.11263797, "DATE": "2002-05-21", "CROSSING_STREET": "Between Pleasant St & Magazine St", "SPEED_85TH": 26.0}},{"geometry": {"type": "Point", "coordinates": [-71.15167660394917, 42.37631443479082]}, "type": "Feature", "id": 100, "properties": {"DIRECTION": "SB", "YCoord": 42.37632309, "STREET": "Cushing Street", "Limit": "25", "XCoord": -71.15167707, "DATE": "2002-01-08", "CROSSING_STREET": "Thingvalla Ave", "SPEED_85TH": 30.0}},{"geometry": {"type": "Point", "coordinates": [-71.15167660394917, 42.37631443479082]}, "type": "Feature", "id": 101, "properties": {"DIRECTION": "SB", "YCoord": 42.37632309, "STREET": "Cushing Street", "Limit": "25", "XCoord": -71.15167707, "DATE": "2002-01-15", "CROSSING_STREET": "Thingvalla Ave", "SPEED_85TH": 29.0}},{"geometry": {"type": "Point", "coordinates": [-71.11258195227056, 42.38190572194438]}, "type": "Feature", "id": 102, "properties": {"DIRECTION": "both", "YCoord": 42.38191438, "STREET": "Carver Street", "Limit": "U", "XCoord": -71.11258241, "DATE": "2001-10-11", "CROSSING_STREET": "Between Harvard & Wendall St", "SPEED_85TH": 21.0}},{"geometry": {"type": "Point", "coordinates": [-71.09019785570564, 42.36905027503705]}, "type": "Feature", "id": 103, "properties": {"DIRECTION": "both", "YCoord": 42.36905893, "STREET": "Cardinal Medeiros Ave", "Limit": "U", "XCoord": -71.0901983, "DATE": "2001-06-07", "CROSSING_STREET": "York Street", "SPEED_85TH": 34.0}},{"geometry": {"type": "Point", "coordinates": [-71.13637334666252, 42.3975317436038]}, "type": "Feature", "id": 104, "properties": {"DIRECTION": "EB", "YCoord": 42.3975404, "STREET": "Clifton Street", "Limit": "U", "XCoord": -71.13637381, "DATE": "2001-10-01", "CROSSING_STREET": "Harvey Street", "SPEED_85TH": 27.0}},{"geometry": {"type": "Point", "coordinates": [-71.13637334666252, 42.3975317436038]}, "type": "Feature", "id": 105, "properties": {"DIRECTION": "EB", "YCoord": 42.3975404, "STREET": "Clifton Street", "Limit": "U", "XCoord": -71.13637381, "DATE": "2001-10-02", "CROSSING_STREET": "Harvey Street", "SPEED_85TH": 29.0}},{"geometry": {"type": "Point", "coordinates": [-71.13637334666252, 42.3975317436038]}, "type": "Feature", "id": 106, "properties": {"DIRECTION": "EB", "YCoord": 42.3975404, "STREET": "Clifton Street", "Limit": "U", "XCoord": -71.13637381, "DATE": "2001-09-27", "CROSSING_STREET": "Harvey Street", "SPEED_85TH": 27.0}},{"geometry": {"type": "Point", "coordinates": [-71.1520538411053, 42.37780755208807]}, "type": "Feature", "id": 107, "properties": {"DIRECTION": "SB", "YCoord": 42.37781621, "STREET": "Cushing Street", "Limit": "25", "XCoord": -71.15205431, "DATE": "2001-08-06", "CROSSING_STREET": "Lawn Strret", "SPEED_85TH": 29.0}},{"geometry": {"type": "Point", "coordinates": [-71.13089830240155, 42.39719460245765]}, "type": "Feature", "id": 108, "properties": {"DIRECTION": "SB", "YCoord": 42.39720326, "STREET": "Cedar Street", "Limit": "U", "XCoord": -71.13089876, "DATE": "2000-07-11", "CROSSING_STREET": "Harvey Street", "SPEED_85TH": 29.0}},{"geometry": {"type": "Point", "coordinates": [-71.13089830240155, 42.39719460245765]}, "type": "Feature", "id": 109, "properties": {"DIRECTION": "NB", "YCoord": 42.39720326, "STREET": "Cedar Street", "Limit": "U", "XCoord": -71.13089876, "DATE": "2000-06-21", "CROSSING_STREET": "Harvey Street", "SPEED_85TH": 30.0}},{"geometry": {"type": "Point", "coordinates": [-71.13083060568587, 42.39473178659475]}, "type": "Feature", "id": 110, "properties": {"DIRECTION": "SB", "YCoord": 42.39474045, "STREET": "Cedar Street", "Limit": "U", "XCoord": -71.13083107, "DATE": "2000-06-08", "CROSSING_STREET": "Norris Street", "SPEED_85TH": 29.0}},{"geometry": {"type": "Point", "coordinates": [-71.13083060568587, 42.39473178659475]}, "type": "Feature", "id": 111, "properties": {"DIRECTION": "NB", "YCoord": 42.39474045, "STREET": "Cedar Street", "Limit": "U", "XCoord": -71.13083107, "DATE": "2000-06-08", "CROSSING_STREET": "Norris Street", "SPEED_85TH": 28.0}},{"geometry": {"type": "Point", "coordinates": [-71.13083060568587, 42.39473178659475]}, "type": "Feature", "id": 112, "properties": {"DIRECTION": "SB", "YCoord": 42.39474045, "STREET": "Cedar Street", "Limit": "U", "XCoord": -71.13083107, "DATE": "1999-09-28", "CROSSING_STREET": "Norris Street", "SPEED_85TH": 30.0}},{"geometry": {"type": "Point", "coordinates": [-71.13083060568587, 42.39473178659475]}, "type": "Feature", "id": 113, "properties": {"DIRECTION": "NB", "YCoord": 42.39474045, "STREET": "Cedar Street", "Limit": "U", "XCoord": -71.13083107, "DATE": "1999-09-28", "CROSSING_STREET": "Norris", "SPEED_85TH": 28.0}},{"geometry": {"type": "Point", "coordinates": [-71.13089830240155, 42.39719460245765]}, "type": "Feature", "id": 114, "properties": {"DIRECTION": "NB", "YCoord": 42.39720326, "STREET": "Cedar Street", "Limit": "U", "XCoord": -71.13089876, "DATE": "1999-09-28", "CROSSING_STREET": "Harvey", "SPEED_85TH": 30.0}},{"geometry": {"type": "Point", "coordinates": [-71.13073894719149, 42.40090923410525]}, "type": "Feature", "id": 115, "properties": {"DIRECTION": "both", "YCoord": 42.40091789, "STREET": "Clarendon Street", "Limit": "U", "XCoord": -71.13073941, "DATE": "1999-07-28", "CROSSING_STREET": "City Line", "SPEED_85TH": 30.0}},{"geometry": {"type": "Point", "coordinates": [-71.13073894719149, 42.40090923410525]}, "type": "Feature", "id": 116, "properties": {"DIRECTION": "both", "YCoord": 42.40091789, "STREET": "Clarendon Street", "Limit": "U", "XCoord": -71.13073941, "DATE": "1999-07-27", "CROSSING_STREET": "City Line", "SPEED_85TH": 34.0}},{"geometry": {"type": "Point", "coordinates": [-71.13575882620883, 42.37649261990062]}, "type": "Feature", "id": 117, "properties": {"DIRECTION": "SB", "YCoord": 42.37650127, "STREET": "Channing Street", "Limit": "U", "XCoord": -71.13575929, "DATE": "1999-07-29", "CROSSING_STREET": "10", "SPEED_85TH": 29.0}},{"geometry": {"type": "Point", "coordinates": [-71.13575882620883, 42.37649261990062]}, "type": "Feature", "id": 118, "properties": {"DIRECTION": "NB", "YCoord": 42.37650127, "STREET": "Channing Street", "Limit": "U", "XCoord": -71.13575929, "DATE": "1999-07-29", "CROSSING_STREET": "10", "SPEED_85TH": 29.0}},{"geometry": {"type": "Point", "coordinates": [-71.09271648089829, 42.37266687764705]}, "type": "Feature", "id": 119, "properties": {"DIRECTION": "EB", "YCoord": 42.37267553, "STREET": "Cambridge Street", "Limit": "U", "XCoord": -71.09271693, "DATE": "1999-06-24", "CROSSING_STREET": "Between Windsor & Willow Street", "SPEED_85TH": 24.0}},{"geometry": {"type": "Point", "coordinates": [-71.09271648089829, 42.37266687764705]}, "type": "Feature", "id": 120, "properties": {"DIRECTION": "WB", "YCoord": 42.37267553, "STREET": "Cambridge Street", "Limit": "U", "XCoord": -71.09271693, "DATE": "1999-06-24", "CROSSING_STREET": "Between Windsor & Willow Street", "SPEED_85TH": 25.0}},{"geometry": {"type": "Point", "coordinates": [-71.09271648089829, 42.37266687764705]}, "type": "Feature", "id": 121, "properties": {"DIRECTION": "WB", "YCoord": 42.37267553, "STREET": "Cambridge Street", "Limit": "U", "XCoord": -71.09271693, "DATE": "1999-06-24", "CROSSING_STREET": "Between Windsor & Willow Street", "SPEED_85TH": 24.0}},{"geometry": {"type": "Point", "coordinates": [-71.11005941318399, 42.3749102242477]}, "type": "Feature", "id": 122, "properties": {"DIRECTION": "EB", "YCoord": 42.37491888, "STREET": "Cambridge Street", "Limit": "U", "XCoord": -71.11005987, "DATE": "1996-01-30", "CROSSING_STREET": "Trowbridge Street", "SPEED_85TH": 30.0}},{"geometry": {"type": "Point", "coordinates": [-71.11005941318399, 42.3749102242477]}, "type": "Feature", "id": 123, "properties": {"DIRECTION": "WB", "YCoord": 42.37491888, "STREET": "Cambridge Street", "Limit": "U", "XCoord": -71.11005987, "DATE": "1996-01-30", "CROSSING_STREET": "Trowbridge Street", "SPEED_85TH": 30.0}},{"geometry": {"type": "Point", "coordinates": [-71.14548900075137, 42.39476097734493]}, "type": "Feature", "id": 124, "properties": {"DIRECTION": "EB", "YCoord": 42.39476963, "STREET": "Cambridgepark Drive", "Limit": "U", "XCoord": -71.14548946, "DATE": "1989-09-25", "SPEED_85TH": 38.0}},{"geometry": {"type": "Point", "coordinates": [-71.14548900075137, 42.39476097734493]}, "type": "Feature", "id": 125, "properties": {"DIRECTION": "WB", "YCoord": 42.39476963, "STREET": "Cambridgepark Drive", "Limit": "U", "XCoord": -71.14548946, "DATE": "1989-09-25", "SPEED_85TH": 36.0}},{"geometry": {"type": "Point", "coordinates": [-71.14548900075137, 42.39476097734493]}, "type": "Feature", "id": 126, "properties": {"DIRECTION": "EB", "YCoord": 42.39476963, "STREET": "Cambridgepark Drive", "Limit": "U", "XCoord": -71.14548946, "DATE": "1989-09-22", "SPEED_85TH": 37.0}},{"geometry": {"type": "Point", "coordinates": [-71.14548900075137, 42.39476097734493]}, "type": "Feature", "id": 127, "properties": {"DIRECTION": "WB", "YCoord": 42.39476963, "STREET": "Cambridgepark Drive", "Limit": "U", "XCoord": -71.14548946, "DATE": "1989-09-22", "SPEED_85TH": 36.0}},{"geometry": {"type": "Point", "coordinates": [-71.08985978386991, 42.36965389263715]}, "type": "Feature", "id": 128, "properties": {"DIRECTION": "NB", "YCoord": 42.36966255, "STREET": "Cardinal Medeiros Ave", "Limit": "U", "XCoord": -71.08986023, "DATE": "1998-05-04", "CROSSING_STREET": "Harwick", "SPEED_85TH": 35.0}},{"geometry": {"type": "Point", "coordinates": [-71.08985978386991, 42.36965389263715]}, "type": "Feature", "id": 129, "properties": {"DIRECTION": "SB", "YCoord": 42.36966255, "STREET": "Cardinal Medeiros Ave", "Limit": "U", "XCoord": -71.08986023, "DATE": "1998-04-30", "CROSSING_STREET": "Harwick", "SPEED_85TH": 34.0}},{"geometry": {"type": "Point", "coordinates": [-71.13085926261823, 42.39579660118192]}, "type": "Feature", "id": 130, "properties": {"DIRECTION": "NB", "YCoord": 42.39580526, "STREET": "Cedar Street", "Limit": "U", "XCoord": -71.13085972, "DATE": "1996-11-21", "CROSSING_STREET": "Dudley Street", "SPEED_85TH": 34.0}},{"geometry": {"type": "Point", "coordinates": [-71.13085926261823, 42.39579660118192]}, "type": "Feature", "id": 131, "properties": {"DIRECTION": "NB", "YCoord": 42.39580526, "STREET": "Cedar Street", "Limit": "U", "XCoord": -71.13085972, "DATE": "1996-11-21", "CROSSING_STREET": "Dudley Street", "SPEED_85TH": 33.0}},{"geometry": {"type": "Point", "coordinates": [-71.13085926261823, 42.39579660118192]}, "type": "Feature", "id": 132, "properties": {"DIRECTION": "NB", "YCoord": 42.39580526, "STREET": "Cedar Street", "Limit": "U", "XCoord": -71.13085972, "DATE": "1991-01-31", "CROSSING_STREET": "Dudley Street", "SPEED_85TH": 30.0}},{"geometry": {"type": "Point", "coordinates": [-71.13085926261823, 42.39579660118192]}, "type": "Feature", "id": 133, "properties": {"DIRECTION": "SB", "YCoord": 42.39580526, "STREET": "Cedar Street", "Limit": "U", "XCoord": -71.13085972, "DATE": "1991-01-31", "CROSSING_STREET": "Dudley Street", "SPEED_85TH": 31.0}},{"geometry": {"type": "Point", "coordinates": [-71.13629979304969, 42.395670300697]}, "type": "Feature", "id": 134, "properties": {"DIRECTION": "SB", "YCoord": 42.39567896, "STREET": "Clifton Street", "Limit": "U", "XCoord": -71.13630026, "DATE": "1991-08-01", "CROSSING_STREET": "Dudley Street", "SPEED_85TH": 31.0}},{"geometry": {"type": "Point", "coordinates": [-71.13637334666252, 42.3975317436038]}, "type": "Feature", "id": 135, "properties": {"DIRECTION": "SB", "YCoord": 42.3975404, "STREET": "Clifton Street", "Limit": "U", "XCoord": -71.13637381, "DATE": "1991-07-29", "CROSSING_STREET": "Harvey Street", "SPEED_85TH": 26.0}},{"geometry": {"type": "Point", "coordinates": [-71.13637334666252, 42.3975317436038]}, "type": "Feature", "id": 136, "properties": {"DIRECTION": "SB", "YCoord": 42.3975404, "STREET": "Clifton Street", "Limit": "U", "XCoord": -71.13637381, "DATE": "1991-08-09", "CROSSING_STREET": "Harvey Steet", "SPEED_85TH": 27.0}},{"geometry": {"type": "Point", "coordinates": [-71.1361150516083, 42.40036712640433]}, "type": "Feature", "id": 137, "properties": {"DIRECTION": "WB", "YCoord": 42.40037578, "STREET": "Columbus Ave", "Limit": "U", "XCoord": -71.13611551, "DATE": "1987-12-04", "CROSSING_STREET": "Madison Ave", "SPEED_85TH": 37.0}},{"geometry": {"type": "Point", "coordinates": [-71.14599251198385, 42.389147693459904]}, "type": "Feature", "id": 138, "properties": {"DIRECTION": "EB", "YCoord": 42.38915635, "STREET": "Concord Ave", "Limit": "U", "XCoord": -71.14599298, "DATE": "1988-06-24", "CROSSING_STREET": "Fawcett", "SPEED_85TH": 40.0}},{"geometry": {"type": "Point", "coordinates": [-71.14599251198385, 42.389147693459904]}, "type": "Feature", "id": 139, "properties": {"DIRECTION": "WB", "YCoord": 42.38915635, "STREET": "Concord Ave", "Limit": "U", "XCoord": -71.14599298, "DATE": "1988-06-24", "CROSSING_STREET": "Fawcett", "SPEED_85TH": 37.0}},{"geometry": {"type": "Point", "coordinates": [-71.14599251198385, 42.389147693459904]}, "type": "Feature", "id": 140, "properties": {"DIRECTION": "EB", "YCoord": 42.38915635, "STREET": "Concord Ave", "Limit": "U", "XCoord": -71.14599298, "DATE": "1999-04-28", "CROSSING_STREET": "Fawcett", "SPEED_85TH": 35.0}},{"geometry": {"type": "Point", "coordinates": [-71.14599251198385, 42.389147693459904]}, "type": "Feature", "id": 141, "properties": {"DIRECTION": "WB", "YCoord": 42.38915635, "STREET": "Concord Ave", "Limit": "U", "XCoord": -71.14599298, "DATE": "1999-04-28", "CROSSING_STREET": "Fawcett", "SPEED_85TH": 41.0}},{"geometry": {"type": "Point", "coordinates": [-71.13727903807693, 42.385241220770475]}, "type": "Feature", "id": 142, "properties": {"DIRECTION": "WB", "YCoord": 42.38524988, "STREET": "Concord Ave", "Limit": "U", "XCoord": -71.1372795, "DATE": "1990-09-27", "CROSSING_STREET": "Alpine", "SPEED_85TH": 35.0}},{"geometry": {"type": "Point", "coordinates": [-71.13727903807693, 42.385241220770475]}, "type": "Feature", "id": 143, "properties": {"DIRECTION": "EB", "YCoord": 42.38524988, "STREET": "Concord Ave", "Limit": "U", "XCoord": -71.1372795, "DATE": "1990-09-27", "CROSSING_STREET": "Alpine", "SPEED_85TH": 37.0}},{"geometry": {"type": "Point", "coordinates": [-71.13967495017319, 42.386301672793124]}, "type": "Feature", "id": 144, "properties": {"DIRECTION": "WB", "YCoord": 42.38631033, "STREET": "Concord Ave", "Limit": "U", "XCoord": -71.13967541, "DATE": "1997-08-27", "CROSSING_STREET": "Birch Street", "SPEED_85TH": 32.0}},{"geometry": {"type": "Point", "coordinates": [-71.13967495017319, 42.386301672793124]}, "type": "Feature", "id": 145, "properties": {"DIRECTION": "EB", "YCoord": 42.38631033, "STREET": "Concord Ave", "Limit": "U", "XCoord": -71.13967541, "DATE": "1997-08-26", "CROSSING_STREET": "Birch Street", "SPEED_85TH": 33.0}},{"geometry": {"type": "Point", "coordinates": [-71.13999905966948, 42.37224475791183]}, "type": "Feature", "id": 146, "properties": {"DIRECTION": "NB", "YCoord": 42.37225341, "STREET": "Coolidge Ave", "Limit": "U", "XCoord": -71.13999952, "DATE": "1997-08-05", "CROSSING_STREET": "Coolidge Hill", "SPEED_85TH": 40.0}},{"geometry": {"type": "Point", "coordinates": [-71.13999905966948, 42.37224475791183]}, "type": "Feature", "id": 147, "properties": {"DIRECTION": "SB", "YCoord": 42.37225341, "STREET": "Coolidge Ave", "Limit": "U", "XCoord": -71.13999952, "DATE": "1997-08-04", "CROSSING_STREET": "Coolidge Hill", "SPEED_85TH": 38.0}},{"geometry": {"type": "Point", "coordinates": [-71.13015984203587, 42.37788435544538]}, "type": "Feature", "id": 148, "properties": {"DIRECTION": "EB", "YCoord": 42.37789301, "STREET": "Craigie Street", "Limit": "U", "XCoord": -71.1301603, "DATE": "1991-01-24", "CROSSING_STREET": "Saville", "SPEED_85TH": 30.0}},{"geometry": {"type": "Point", "coordinates": [-71.15167660394917, 42.37631443479082]}, "type": "Feature", "id": 149, "properties": {"DIRECTION": "SB", "YCoord": 42.37632309, "STREET": "Cushing Street", "Limit": "25", "XCoord": -71.15167707, "DATE": "1997-11-04", "CROSSING_STREET": "Thingvalla Ave", "SPEED_85TH": 28.0}},{"geometry": {"type": "Point", "coordinates": [-71.15229868879801, 42.37877908806995]}, "type": "Feature", "id": 150, "properties": {"DIRECTION": "SB", "YCoord": 42.37878774, "STREET": "Cushing Street", "Limit": "25", "XCoord": -71.15229916, "DATE": "1999-06-16", "CROSSING_STREET": "Vineyard", "SPEED_85TH": 23.0}},{"geometry": {"type": "Point", "coordinates": [-71.1362563523525, 42.39448444345305]}, "type": "Feature", "id": 151, "properties": {"DIRECTION": "SB", "YCoord": 42.3944931, "STREET": "Clifton Street", "Limit": "U", "XCoord": -71.13625681, "DATE": "2004-06-30", "CROSSING_STREET": "30", "SPEED_85TH": 27.0}},{"geometry": {"type": "Point", "coordinates": [-71.13631060304165, 42.39594391436246]}, "type": "Feature", "id": 152, "properties": {"DIRECTION": "SB", "YCoord": 42.39595257, "STREET": "Clifton Street", "Limit": "U", "XCoord": -71.13631106, "DATE": "2004-09-30", "CROSSING_STREET": "north of Dudley", "SPEED_85TH": 28.0}},{"geometry": {"type": "Point", "coordinates": [-71.15448907082207, 42.390599698526664]}, "type": "Feature", "id": 153, "properties": {"DIRECTION": "EB", "YCoord": 42.39060835, "STREET": "Concord Avenue", "Limit": "U", "XCoord": -71.15448954, "DATE": "2004-11-17", "CROSSING_STREET": "west of Spinelli", "SPEED_85TH": 40.0}},{"geometry": {"type": "Point", "coordinates": [-71.15360310728016, 42.39048699724339]}, "type": "Feature", "id": 154, "properties": {"DIRECTION": "WB", "YCoord": 42.39049565, "STREET": "Concord Avenue", "Limit": "U", "XCoord": -71.15360357, "DATE": "2004-11-17", "CROSSING_STREET": "east of Spinelli", "SPEED_85TH": 37.0}},{"geometry": {"type": "Point", "coordinates": [-71.13089830240155, 42.39719460245765]}, "type": "Feature", "id": 155, "properties": {"DIRECTION": "NB", "YCoord": 42.39720326, "STREET": "Cedar Street", "Limit": "U", "XCoord": -71.13089876, "DATE": "2010-04-01", "CROSSING_STREET": "Harvey Street", "SPEED_85TH": 27.0}},{"geometry": {"type": "Point", "coordinates": [-71.13089830240155, 42.39719460245765]}, "type": "Feature", "id": 156, "properties": {"DIRECTION": "SB", "YCoord": 42.39720326, "STREET": "Cedar Street", "Limit": "U", "XCoord": -71.13089876, "DATE": "2010-04-01", "CROSSING_STREET": "Harvey Street", "SPEED_85TH": 26.0}},{"geometry": {"type": "Point", "coordinates": [-71.12986637391697, 42.397741497104526]}, "type": "Feature", "id": 157, "properties": {"DIRECTION": "SB", "YCoord": 42.39775016, "STREET": "Cameron Avenue", "Limit": "U", "XCoord": -71.12986683, "DATE": "2009-08-25", "CROSSING_STREET": "Community Path", "SPEED_85TH": 32.0}},{"geometry": {"type": "Point", "coordinates": [-71.1520538411053, 42.37780755208807]}, "type": "Feature", "id": 158, "properties": {"DIRECTION": "SB", "YCoord": 42.37781621, "STREET": "Cushing Street", "Limit": "25", "XCoord": -71.15205431, "DATE": "2009-07-01", "CROSSING_STREET": "Lawn Street", "SPEED_85TH": 27.0}},{"geometry": {"type": "Point", "coordinates": [-71.15167660394917, 42.37631443479082]}, "type": "Feature", "id": 159, "properties": {"DIRECTION": "SB", "YCoord": 42.37632309, "STREET": "Cushing Street", "Limit": "25", "XCoord": -71.15167707, "DATE": "2009-07-07", "CROSSING_STREET": "Thingvalla Avenue", "SPEED_85TH": 29.0}},{"geometry": {"type": "Point", "coordinates": [-71.11675681408953, 42.36999683015386]}, "type": "Feature", "id": 160, "properties": {"DIRECTION": "SB", "YCoord": 42.37000548, "STREET": "Dewolfe Street", "Limit": "U", "XCoord": -71.11675727, "DATE": "2001-01-30", "CROSSING_STREET": "Mill Street", "SPEED_85TH": 25.0}},{"geometry": {"type": "Point", "coordinates": [-71.13242177380408, 42.38381135037645]}, "type": "Feature", "id": 161, "properties": {"DIRECTION": "SB", "YCoord": 42.38382001, "STREET": "Donnell Street", "Limit": "U", "XCoord": -71.13242223, "DATE": "2001-01-17", "SPEED_85TH": 27.0}},{"geometry": {"type": "Point", "coordinates": [-71.11889693274013, 42.3900425798276]}, "type": "Feature", "id": 162, "properties": {"DIRECTION": "NB", "YCoord": 42.39005124, "STREET": "Davenport", "Limit": "U", "XCoord": -71.11889739, "DATE": "1997-11-13", "CROSSING_STREET": "Corcoran", "SPEED_85TH": 28.0}},{"geometry": {"type": "Point", "coordinates": [-71.11889693274013, 42.3900425798276]}, "type": "Feature", "id": 163, "properties": {"DIRECTION": "SB", "YCoord": 42.39005124, "STREET": "Davenport", "Limit": "U", "XCoord": -71.11889739, "DATE": "1999-11-13", "CROSSING_STREET": "Corcoran", "SPEED_85TH": 25.0}},{"geometry": {"type": "Point", "coordinates": [-71.13015817282985, 42.396157101401165]}, "type": "Feature", "id": 164, "properties": {"DIRECTION": "EB", "YCoord": 42.39616576, "STREET": "Dudley Street", "Limit": "U", "XCoord": -71.13015863, "DATE": "1990-11-20", "CROSSING_STREET": "Mass Ave & Cedar", "SPEED_85TH": 25.0}},{"geometry": {"type": "Point", "coordinates": [-71.13263295079341, 42.39574943533025]}, "type": "Feature", "id": 165, "properties": {"DIRECTION": "EB", "YCoord": 42.39575809, "STREET": "Dudley Street", "Limit": "U", "XCoord": -71.13263341, "DATE": "1990-11-20", "CROSSING_STREET": "Clay & Cedar", "SPEED_85TH": 26.0}},{"geometry": {"type": "Point", "coordinates": [-71.13263295079341, 42.39574943533025]}, "type": "Feature", "id": 166, "properties": {"DIRECTION": "EB", "YCoord": 42.39575809, "STREET": "Dudley Street", "Limit": "U", "XCoord": -71.13263341, "DATE": "1990-11-19", "CROSSING_STREET": "Clay & Cedar", "SPEED_85TH": 24.0}},{"geometry": {"type": "Point", "coordinates": [-71.13263295079341, 42.39574943533025]}, "type": "Feature", "id": 167, "properties": {"DIRECTION": "EB", "YCoord": 42.39575809, "STREET": "Dudley Street", "Limit": "U", "XCoord": -71.13263341, "DATE": "1990-11-19", "CROSSING_STREET": "Clay & Cedar", "SPEED_85TH": 24.0}},{"geometry": {"type": "Point", "coordinates": [-71.10896281946458, 42.37179048763042]}, "type": "Feature", "id": 168, "properties": {"DIRECTION": "SB", "YCoord": 42.37179914, "STREET": "Dana Street", "Limit": "U", "XCoord": -71.10896327, "DATE": "2006-05-04", "CROSSING_STREET": "40", "SPEED_85TH": 30.0}},{"geometry": {"type": "Point", "coordinates": [-71.12621895972194, 42.394986469217024]}, "type": "Feature", "id": 169, "properties": {"DIRECTION": "SB", "YCoord": 42.39499513, "STREET": "Dover Street", "Limit": "U", "XCoord": -71.12621942, "DATE": "2003-11-13", "SPEED_85TH": 26.0}},{"geometry": {"type": "Point", "coordinates": [-71.12609084110069, 42.395062690198564]}, "type": "Feature", "id": 170, "properties": {"DIRECTION": "WB", "YCoord": 42.39507135, "STREET": "Dover Street", "Limit": "U", "XCoord": -71.1260913, "DATE": "2014-09-17", "CROSSING_STREET": "31", "SPEED_85TH": 23.0}},{"geometry": {"type": "Point", "coordinates": [-71.1015117972397, 42.3669371873209]}, "type": "Feature", "id": 171, "properties": {"DIRECTION": "NB", "YCoord": 42.36694584, "STREET": "Essex Street", "Limit": "U", "XCoord": -71.10151225, "DATE": "2003-07-02", "CROSSING_STREET": "Bishop Allen Dr & Harvard St", "SPEED_85TH": 26.0}},{"geometry": {"type": "Point", "coordinates": [-71.086446587588, 42.37043792056941]}, "type": "Feature", "id": 172, "properties": {"DIRECTION": "NB", "YCoord": 42.37044658, "STREET": "Eighth Street", "Limit": "U", "XCoord": -71.08644703, "DATE": "2001-09-26", "CROSSING_STREET": "Thorndike Street", "SPEED_85TH": 19.0}},{"geometry": {"type": "Point", "coordinates": [-71.10233072435166, 42.365843845023036]}, "type": "Feature", "id": 173, "properties": {"DIRECTION": "NB", "YCoord": 42.3658525, "STREET": "Esex Street", "Limit": "U", "XCoord": -71.10233117, "DATE": "2001-02-01", "CROSSING_STREET": "Bishop Allen Dr", "SPEED_85TH": 27.0}},{"geometry": {"type": "Point", "coordinates": [-71.11335313203317, 42.38352062382033]}, "type": "Feature", "id": 174, "properties": {"DIRECTION": "EB", "YCoord": 42.38352928, "STREET": "Eustis Street", "Limit": "U", "XCoord": -71.11335359, "DATE": "2000-06-20", "SPEED_85TH": 27.0}},{"geometry": {"type": "Point", "coordinates": [-71.1103036676214, 42.37188348736169]}, "type": "Feature", "id": 175, "properties": {"DIRECTION": "SB", "YCoord": 42.37189214, "STREET": "Ellery Street", "Limit": "U", "XCoord": -71.11030412, "DATE": "1999-11-17", "CROSSING_STREET": "Cleveland Street", "SPEED_85TH": 27.0}},{"geometry": {"type": "Point", "coordinates": [-71.10833488056407, 42.37468969632827]}, "type": "Feature", "id": 176, "properties": {"DIRECTION": "SB", "YCoord": 42.37469835, "STREET": "Ellery Street", "Limit": "U", "XCoord": -71.10833533, "DATE": "1999-11-09", "CROSSING_STREET": "Broadway & Cambridge", "SPEED_85TH": 28.0}},{"geometry": {"type": "Point", "coordinates": [-71.1103036676214, 42.37188348736169]}, "type": "Feature", "id": 177, "properties": {"DIRECTION": "SB", "YCoord": 42.37189214, "STREET": "Ellery Street", "Limit": "U", "XCoord": -71.11030412, "DATE": "1999-10-13", "CROSSING_STREET": "Cleveland Street", "SPEED_85TH": 26.0}},{"geometry": {"type": "Point", "coordinates": [-71.10833488056407, 42.37468969632827]}, "type": "Feature", "id": 178, "properties": {"DIRECTION": "SB", "YCoord": 42.37469835, "STREET": "Ellery Street", "Limit": "U", "XCoord": -71.10833533, "DATE": "1999-09-30", "CROSSING_STREET": "Broadway & Cambridge", "SPEED_85TH": 27.0}},{"geometry": {"type": "Point", "coordinates": [-71.09754787720848, 42.36931784154449]}, "type": "Feature", "id": 179, "properties": {"DIRECTION": "SB", "YCoord": 42.3693265, "STREET": "Elm Street", "Limit": "U", "XCoord": -71.09754833, "DATE": "1997-02-12", "CROSSING_STREET": "Broadway & Market St", "SPEED_85TH": 25.0}},{"geometry": {"type": "Point", "coordinates": [-71.10233072435166, 42.365843845023036]}, "type": "Feature", "id": 180, "properties": {"DIRECTION": "NB", "YCoord": 42.3658525, "STREET": "Essex Street", "Limit": "U", "XCoord": -71.10233117, "DATE": "1991-11-04", "CROSSING_STREET": "Broadway & Howaed St", "SPEED_85TH": 29.0}},{"geometry": {"type": "Point", "coordinates": [-71.10256485244972, 42.36563058855373]}, "type": "Feature", "id": 181, "properties": {"DIRECTION": "NB", "YCoord": 42.36563924, "STREET": "Essex Street", "Limit": "U", "XCoord": -71.1025653, "DATE": "1991-11-07", "SPEED_85TH": 23.0}},{"geometry": {"type": "Point", "coordinates": [-71.09788686845864, 42.36873421274908]}, "type": "Feature", "id": 182, "properties": {"DIRECTION": "SB", "YCoord": 42.36874287, "STREET": "Elm Street", "Limit": "U", "XCoord": -71.09788732, "DATE": "2009-07-02", "CROSSING_STREET": "S of Market Street", "SPEED_85TH": 25.0}},{"geometry": {"type": "Point", "coordinates": [-71.1148309431503, 42.383490154587435]}, "type": "Feature", "id": 183, "properties": {"DIRECTION": "EB", "YCoord": 42.38349881, "STREET": "Eustis Street", "Limit": "U", "XCoord": -71.1148314, "DATE": "2013-08-27", "CROSSING_STREET": "Traymore Street", "SPEED_85TH": 25.0}},{"geometry": {"type": "Point", "coordinates": [-71.13579232971081, 42.38458184588539]}, "type": "Feature", "id": 184, "properties": {"DIRECTION": "NB", "YCoord": 42.3845905, "STREET": "Fayerweather Street", "Limit": "25", "XCoord": -71.13579279, "DATE": "2005-07-21", "CROSSING_STREET": "Concord Ave", "SPEED_85TH": 25.0}},{"geometry": {"type": "Point", "coordinates": [-71.13733674963622, 42.38129692135093]}, "type": "Feature", "id": 185, "properties": {"DIRECTION": "SB", "YCoord": 42.38130558, "STREET": "Fayerweather Street", "Limit": "25", "XCoord": -71.13733721, "DATE": "2005-07-21", "CROSSING_STREET": "Huron Ave", "SPEED_85TH": 26.0}},{"geometry": {"type": "Point", "coordinates": [-71.11814580696904, 42.3852928326618]}, "type": "Feature", "id": 186, "properties": {"DIRECTION": "EB", "YCoord": 42.38530149, "STREET": "Forest Street", "Limit": "U", "XCoord": -71.11814626, "DATE": "2002-08-21", "CROSSING_STREET": "Newport Street", "SPEED_85TH": 23.0}},{"geometry": {"type": "Point", "coordinates": [-71.12335923072408, 42.378200277721675]}, "type": "Feature", "id": 187, "properties": {"DIRECTION": "WB", "YCoord": 42.37820893, "STREET": "Follen Street", "Limit": "U", "XCoord": -71.12335969, "DATE": "2001-10-02", "CROSSING_STREET": "Bent Street", "SPEED_85TH": 23.0}},{"geometry": {"type": "Point", "coordinates": [-71.15504265061305, 42.378952869873146]}, "type": "Feature", "id": 188, "properties": {"DIRECTION": "EB", "YCoord": 42.37896152, "STREET": "Fairview Avenue", "Limit": "U", "XCoord": -71.15504312, "DATE": "1999-09-29", "CROSSING_STREET": "12", "SPEED_85TH": 20.0}},{"geometry": {"type": "Point", "coordinates": [-71.15504265061305, 42.378952869873146]}, "type": "Feature", "id": 189, "properties": {"DIRECTION": "WB", "YCoord": 42.37896152, "STREET": "Fairview Ave", "Limit": "U", "XCoord": -71.15504312, "DATE": "1999-09-29", "CROSSING_STREET": "12", "SPEED_85TH": 20.0}},{"geometry": {"type": "Point", "coordinates": [-71.13787044746749, 42.378831441028446]}, "type": "Feature", "id": 190, "properties": {"DIRECTION": "NB", "YCoord": 42.3788401, "STREET": "Fayerweather Street", "Limit": "25", "XCoord": -71.13787091, "DATE": "1999-07-20", "CROSSING_STREET": "Reservour Street", "SPEED_85TH": 30.0}},{"geometry": {"type": "Point", "coordinates": [-71.13787044746749, 42.378831441028446]}, "type": "Feature", "id": 191, "properties": {"DIRECTION": "SB", "YCoord": 42.3788401, "STREET": "Fayerweather Street", "Limit": "25", "XCoord": -71.13787091, "DATE": "1999-07-20", "CROSSING_STREET": "Reservoir Street", "SPEED_85TH": 33.0}},{"geometry": {"type": "Point", "coordinates": [-71.12646837152678, 42.39252515210382]}, "type": "Feature", "id": 192, "properties": {"DIRECTION": "SB", "YCoord": 42.39253381, "STREET": "Fairfield Street", "Limit": "U", "XCoord": -71.12646883, "DATE": "1991-10-21", "CROSSING_STREET": "Rindge Ave", "SPEED_85TH": 23.0}},{"geometry": {"type": "Point", "coordinates": [-71.12646837152678, 42.39252515210382]}, "type": "Feature", "id": 193, "properties": {"DIRECTION": "SB", "YCoord": 42.39253381, "STREET": "Fairfield Street", "Limit": "U", "XCoord": -71.12646883, "DATE": "1991-10-18", "CROSSING_STREET": "Rindge Ave", "SPEED_85TH": 24.0}},{"geometry": {"type": "Point", "coordinates": [-71.10843497657547, 42.37863669820619]}, "type": "Feature", "id": 194, "properties": {"DIRECTION": "EB", "YCoord": 42.37864535, "STREET": "Farrar Street", "Limit": "U", "XCoord": -71.10843543, "DATE": "2001-06-07", "CROSSING_STREET": "Holden", "SPEED_85TH": 25.0}},{"geometry": {"type": "Point", "coordinates": [-71.10843497657547, 42.37863669820619]}, "type": "Feature", "id": 195, "properties": {"DIRECTION": "EB", "YCoord": 42.37864535, "STREET": "Farrar Street", "Limit": "U", "XCoord": -71.10843543, "DATE": "1991-06-07", "CROSSING_STREET": "Holden Street", "SPEED_85TH": 25.0}},{"geometry": {"type": "Point", "coordinates": [-71.13780531832576, 42.37919814522847]}, "type": "Feature", "id": 196, "properties": {"DIRECTION": "SB", "YCoord": 42.3792068, "STREET": "Fayerweather Street", "Limit": "25", "XCoord": -71.13780578, "DATE": "1988-04-06", "CROSSING_STREET": "Lincoln Lane", "SPEED_85TH": 33.0}},{"geometry": {"type": "Point", "coordinates": [-71.13730757037067, 42.3768078668338]}, "type": "Feature", "id": 197, "properties": {"DIRECTION": "SB", "YCoord": 42.37681652, "STREET": "Fayerweather Street", "Limit": "25", "XCoord": -71.13730803, "DATE": "1988-05-03", "CROSSING_STREET": "Brattle", "SPEED_85TH": 36.0}},{"geometry": {"type": "Point", "coordinates": [-71.13780531832576, 42.37919814522847]}, "type": "Feature", "id": 198, "properties": {"DIRECTION": "NB", "YCoord": 42.3792068, "STREET": "Fayerweather Street", "Limit": "25", "XCoord": -71.13780578, "DATE": "1988-04-06", "CROSSING_STREET": "Lincoln Lane", "SPEED_85TH": 33.0}},{"geometry": {"type": "Point", "coordinates": [-71.13763617174841, 42.379954810382024]}, "type": "Feature", "id": 199, "properties": {"DIRECTION": "NB", "YCoord": 42.37996346, "STREET": "Fayerweather Street", "Limit": "25", "XCoord": -71.13763663, "DATE": "1988-05-03", "CROSSING_STREET": "Gurney Street", "SPEED_85TH": 35.0}},{"geometry": {"type": "Point", "coordinates": [-71.13779294415151, 42.37845879605491]}, "type": "Feature", "id": 200, "properties": {"DIRECTION": "SB", "YCoord": 42.37846745, "STREET": "Fayerweather Street", "Limit": "25", "XCoord": -71.13779341, "DATE": "1987-10-30", "CROSSING_STREET": "Brattle & Huron Ave", "SPEED_85TH": 33.0}},{"geometry": {"type": "Point", "coordinates": [-71.13780531832576, 42.37919814522847]}, "type": "Feature", "id": 201, "properties": {"DIRECTION": "SB", "YCoord": 42.3792068, "STREET": "Fayerweather Street", "Limit": "25", "XCoord": -71.13780578, "DATE": "1987-10-29", "CROSSING_STREET": "Lincoln Lane", "SPEED_85TH": 34.0}},{"geometry": {"type": "Point", "coordinates": [-71.13787044746749, 42.378831441028446]}, "type": "Feature", "id": 202, "properties": {"DIRECTION": "NB", "YCoord": 42.3788401, "STREET": "Fayerweather Street", "Limit": "25", "XCoord": -71.13787091, "DATE": "1987-10-30", "CROSSING_STREET": "Reservoir Street", "SPEED_85TH": 36.0}},{"geometry": {"type": "Point", "coordinates": [-71.13780531832576, 42.37919814522847]}, "type": "Feature", "id": 203, "properties": {"DIRECTION": "NB", "YCoord": 42.3792068, "STREET": "Fayerweather Street", "Limit": "25", "XCoord": -71.13780578, "DATE": "1987-10-29", "CROSSING_STREET": "Lincoln Lane", "SPEED_85TH": 35.0}},{"geometry": {"type": "Point", "coordinates": [-71.13763617174841, 42.379954810382024]}, "type": "Feature", "id": 204, "properties": {"DIRECTION": "NB", "YCoord": 42.37996346, "STREET": "Fayerweather Street", "Limit": "25", "XCoord": -71.13763663, "DATE": "1988-05-03", "CROSSING_STREET": "Gurney Street", "SPEED_85TH": 35.0}},{"geometry": {"type": "Point", "coordinates": [-71.13624526094725, 42.38401138846684]}, "type": "Feature", "id": 205, "properties": {"DIRECTION": "SB", "YCoord": 42.38402004, "STREET": "Fayerweather Street", "Limit": "25", "XCoord": -71.13624572, "DATE": "1990-03-09", "CROSSING_STREET": "Saville", "SPEED_85TH": 30.0}},{"geometry": {"type": "Point", "coordinates": [-71.13624526094725, 42.38401138846684]}, "type": "Feature", "id": 206, "properties": {"DIRECTION": "SB", "YCoord": 42.38402004, "STREET": "Fayerweather Street", "Limit": "25", "XCoord": -71.13624572, "DATE": "1990-03-09", "CROSSING_STREET": "Saville", "SPEED_85TH": 29.0}},{"geometry": {"type": "Point", "coordinates": [-71.13624526094725, 42.38401138846684]}, "type": "Feature", "id": 207, "properties": {"DIRECTION": "SB", "YCoord": 42.38402004, "STREET": "Fayerweather Street", "Limit": "25", "XCoord": -71.13624572, "DATE": "1990-03-07", "CROSSING_STREET": "Saville", "SPEED_85TH": 28.0}},{"geometry": {"type": "Point", "coordinates": [-71.13624526094725, 42.38401138846684]}, "type": "Feature", "id": 208, "properties": {"DIRECTION": "SB", "YCoord": 42.38402004, "STREET": "Fayerweather Street", "Limit": "25", "XCoord": -71.13624572, "DATE": "1990-03-08", "CROSSING_STREET": "Saville", "SPEED_85TH": 30.0}},{"geometry": {"type": "Point", "coordinates": [-71.13624526094725, 42.38401138846684]}, "type": "Feature", "id": 209, "properties": {"DIRECTION": "SB", "YCoord": 42.38402004, "STREET": "Fayerweather Street", "Limit": "25", "XCoord": -71.13624572, "DATE": "1990-03-08", "CROSSING_STREET": "Saville", "SPEED_85TH": 28.0}},{"geometry": {"type": "Point", "coordinates": [-71.13624526094725, 42.38401138846684]}, "type": "Feature", "id": 210, "properties": {"DIRECTION": "SB", "YCoord": 42.38402004, "STREET": "Fayerweather Street", "Limit": "25", "XCoord": -71.13624572, "DATE": "1990-03-07", "CROSSING_STREET": "Saville", "SPEED_85TH": 29.0}},{"geometry": {"type": "Point", "coordinates": [-71.08362311644699, 42.369378234281434]}, "type": "Feature", "id": 211, "properties": {"DIRECTION": "NB", "YCoord": 42.36938689, "STREET": "Fifth Street", "Limit": "U", "XCoord": -71.08362356, "DATE": "1994-09-15", "CROSSING_STREET": "Spring Street", "SPEED_85TH": 26.0}},{"geometry": {"type": "Point", "coordinates": [-71.08362311644699, 42.369378234281434]}, "type": "Feature", "id": 212, "properties": {"DIRECTION": "SB", "YCoord": 42.36938689, "STREET": "Fifth Street", "Limit": "U", "XCoord": -71.08362356, "DATE": "1999-09-15", "CROSSING_STREET": "Spring Street", "SPEED_85TH": 27.0}},{"geometry": {"type": "Point", "coordinates": [-71.08362311644699, 42.369378234281434]}, "type": "Feature", "id": 213, "properties": {"DIRECTION": "SB", "YCoord": 42.36938689, "STREET": "Fifth Street", "Limit": "U", "XCoord": -71.08362356, "DATE": "1994-09-13", "CROSSING_STREET": "Spring Street", "SPEED_85TH": 26.0}},{"geometry": {"type": "Point", "coordinates": [-71.08362311644699, 42.369378234281434]}, "type": "Feature", "id": 214, "properties": {"DIRECTION": "NB", "YCoord": 42.36938689, "STREET": "Fifth Street", "Limit": "U", "XCoord": -71.08362356, "DATE": "1994-09-13", "CROSSING_STREET": "Spring Street", "SPEED_85TH": 26.0}},{"geometry": {"type": "Point", "coordinates": [-71.08362311644699, 42.369378234281434]}, "type": "Feature", "id": 215, "properties": {"DIRECTION": "NB", "YCoord": 42.36938689, "STREET": "Fifth Street", "Limit": "U", "XCoord": -71.08362356, "DATE": "1994-08-04", "CROSSING_STREET": "Spring Street", "SPEED_85TH": 28.0}},{"geometry": {"type": "Point", "coordinates": [-71.08362311644699, 42.369378234281434]}, "type": "Feature", "id": 216, "properties": {"DIRECTION": "SB", "YCoord": 42.36938689, "STREET": "Fifth Street", "Limit": "U", "XCoord": -71.08362356, "DATE": "1994-08-04", "CROSSING_STREET": "Spring Street", "SPEED_85TH": 27.0}},{"geometry": {"type": "Point", "coordinates": [-71.10243447803826, 42.362859659053754]}, "type": "Feature", "id": 217, "properties": {"DIRECTION": "EB", "YCoord": 42.36286831, "STREET": "Franklin Street", "Limit": "U", "XCoord": -71.10243493, "DATE": "1992-08-25", "CROSSING_STREET": "Brookline Street", "SPEED_85TH": 28.0}},{"geometry": {"type": "Point", "coordinates": [-71.10243447803826, 42.362859659053754]}, "type": "Feature", "id": 218, "properties": {"DIRECTION": "EB", "YCoord": 42.36286831, "STREET": "Franklin Street", "Limit": "U", "XCoord": -71.10243493, "DATE": "1992-08-26", "CROSSING_STREET": "Brookline Street", "SPEED_85TH": 28.0}},{"geometry": {"type": "Point", "coordinates": [-71.10834133152635, 42.36639912589473]}, "type": "Feature", "id": 219, "properties": {"DIRECTION": "EB", "YCoord": 42.36640778, "STREET": "Franklin Street", "Limit": "U", "XCoord": -71.10834178, "DATE": "1987-06-19", "CROSSING_STREET": "Soden Street", "SPEED_85TH": 29.0}},{"geometry": {"type": "Point", "coordinates": [-71.10998307683371, 42.36725084039651]}, "type": "Feature", "id": 220, "properties": {"DIRECTION": "EB", "YCoord": 42.36725949, "STREET": "Franklin Street", "Limit": "U", "XCoord": -71.10998353, "DATE": "1987-06-18", "CROSSING_STREET": "Hancock Street", "SPEED_85TH": 26.0}},{"geometry": {"type": "Point", "coordinates": [-71.14142529884482, 42.37794523831694]}, "type": "Feature", "id": 221, "properties": {"DIRECTION": "NB", "YCoord": 42.37795389, "STREET": "Grozier Road", "Limit": "U", "XCoord": -71.14142576, "DATE": "2005-08-03", "CROSSING_STREET": "25", "SPEED_85TH": 25.0}},{"geometry": {"type": "Point", "coordinates": [-71.14142529884482, 42.37794523831694]}, "type": "Feature", "id": 222, "properties": {"DIRECTION": "SB", "YCoord": 42.37795389, "STREET": "Grozier Road", "Limit": "U", "XCoord": -71.14142576, "DATE": "2005-08-03", "CROSSING_STREET": "25", "SPEED_85TH": 25.0}},{"geometry": {"type": "Point", "coordinates": [-71.14142529884482, 42.37794523831694]}, "type": "Feature", "id": 223, "properties": {"DIRECTION": "NB", "YCoord": 42.37795389, "STREET": "Grozier Road", "Limit": "U", "XCoord": -71.14142576, "DATE": "2005-08-10", "CROSSING_STREET": "25", "SPEED_85TH": 22.0}},{"geometry": {"type": "Point", "coordinates": [-71.14142529884482, 42.37794523831694]}, "type": "Feature", "id": 224, "properties": {"DIRECTION": "SB", "YCoord": 42.37795389, "STREET": "Grozier Road", "Limit": "U", "XCoord": -71.14142576, "DATE": "2005-08-10", "CROSSING_STREET": "25", "SPEED_85TH": 21.0}},{"geometry": {"type": "Point", "coordinates": [-71.14208528058026, 42.37981334112542]}, "type": "Feature", "id": 225, "properties": {"DIRECTION": "NB", "YCoord": 42.379822, "STREET": "Grozier Road", "Limit": "U", "XCoord": -71.14208574, "DATE": "2005-07-28", "CROSSING_STREET": "71", "SPEED_85TH": 26.0}},{"geometry": {"type": "Point", "coordinates": [-71.14208528058026, 42.37981334112542]}, "type": "Feature", "id": 226, "properties": {"DIRECTION": "SB", "YCoord": 42.379822, "STREET": "Grozier Road", "Limit": "U", "XCoord": -71.14208574, "DATE": "2005-07-28", "CROSSING_STREET": "71", "SPEED_85TH": 27.0}},{"geometry": {"type": "Point", "coordinates": [-71.11784087009312, 42.38369912452957]}, "type": "Feature", "id": 227, "properties": {"DIRECTION": "both", "YCoord": 42.38370778, "STREET": "Garfield Street", "Limit": "U", "XCoord": -71.11784132, "DATE": "2004-06-23", "SPEED_85TH": 30.0}},{"geometry": {"type": "Point", "coordinates": [-71.12098270055068, 42.37596618269046]}, "type": "Feature", "id": 228, "properties": {"DIRECTION": "EB", "YCoord": 42.37597484, "STREET": "Garden Street", "Limit": "U", "XCoord": -71.12098316, "DATE": "2004-04-29", "CROSSING_STREET": "Appian Way", "SPEED_85TH": 31.0}},{"geometry": {"type": "Point", "coordinates": [-71.12098270055068, 42.37596618269046]}, "type": "Feature", "id": 229, "properties": {"DIRECTION": "WB", "YCoord": 42.37597484, "STREET": "Garden Street", "Limit": "U", "XCoord": -71.12098316, "DATE": "2004-06-17", "CROSSING_STREET": "Appian Way", "SPEED_85TH": 30.0}},{"geometry": {"type": "Point", "coordinates": [-71.12098270055068, 42.37596618269046]}, "type": "Feature", "id": 230, "properties": {"DIRECTION": "EB", "YCoord": 42.37597484, "STREET": "Garden Street", "Limit": "U", "XCoord": -71.12098316, "DATE": "2004-04-29", "CROSSING_STREET": "Appian Way", "SPEED_85TH": 26.0}},{"geometry": {"type": "Point", "coordinates": [-71.12098270055068, 42.37596618269046]}, "type": "Feature", "id": 231, "properties": {"DIRECTION": "EB", "YCoord": 42.37597484, "STREET": "Garden Street", "Limit": "U", "XCoord": -71.12098316, "DATE": "2004-05-27", "CROSSING_STREET": "Appian way", "SPEED_85TH": 26.0}},{"geometry": {"type": "Point", "coordinates": [-71.13433281440074, 42.386355862649545]}, "type": "Feature", "id": 232, "properties": {"DIRECTION": "EB", "YCoord": 42.38636452, "STREET": "Garden Street", "Limit": "U", "XCoord": -71.13433327, "DATE": "2000-09-27", "CROSSING_STREET": "Hazel Strret", "SPEED_85TH": 34.0}},{"geometry": {"type": "Point", "coordinates": [-71.13433281440074, 42.386355862649545]}, "type": "Feature", "id": 233, "properties": {"DIRECTION": "WB", "YCoord": 42.38636452, "STREET": "Garden Street", "Limit": "U", "XCoord": -71.13433327, "DATE": "2000-09-27", "CROSSING_STREET": "Hazel Street", "SPEED_85TH": 36.0}},{"geometry": {"type": "Point", "coordinates": [-71.13433281440074, 42.386355862649545]}, "type": "Feature", "id": 234, "properties": {"DIRECTION": "EB", "YCoord": 42.38636452, "STREET": "Garden Street", "Limit": "U", "XCoord": -71.13433327, "DATE": "2000-09-06", "CROSSING_STREET": "Hazel street", "SPEED_85TH": 32.0}},{"geometry": {"type": "Point", "coordinates": [-71.13433281440074, 42.386355862649545]}, "type": "Feature", "id": 235, "properties": {"DIRECTION": "EB", "YCoord": 42.38636452, "STREET": "Garden Street", "Limit": "U", "XCoord": -71.13433327, "DATE": "2000-09-06", "CROSSING_STREET": "Hazel Street", "SPEED_85TH": 33.0}},{"geometry": {"type": "Point", "coordinates": [-71.13433281440074, 42.386355862649545]}, "type": "Feature", "id": 236, "properties": {"DIRECTION": "EB", "YCoord": 42.38636452, "STREET": "Garden Street", "Limit": "U", "XCoord": -71.13433327, "DATE": "2000-10-11", "CROSSING_STREET": "Hazel Street", "SPEED_85TH": 35.0}},{"geometry": {"type": "Point", "coordinates": [-71.13433281440074, 42.386355862649545]}, "type": "Feature", "id": 237, "properties": {"DIRECTION": "WB", "YCoord": 42.38636452, "STREET": "Garden Street", "Limit": "U", "XCoord": -71.13433327, "DATE": "2000-10-11", "CROSSING_STREET": "Hazel Street", "SPEED_85TH": 34.0}},{"geometry": {"type": "Point", "coordinates": [-71.13503034374678, 42.386584408039326]}, "type": "Feature", "id": 238, "properties": {"DIRECTION": "EB", "YCoord": 42.38659306, "STREET": "Garden Street", "Limit": "U", "XCoord": -71.13503081, "DATE": "1995-05-08", "CROSSING_STREET": "Bristol Arms", "SPEED_85TH": 29.0}},{"geometry": {"type": "Point", "coordinates": [-71.13503034374678, 42.386584408039326]}, "type": "Feature", "id": 239, "properties": {"DIRECTION": "WB", "YCoord": 42.38659306, "STREET": "Garden Street", "Limit": "U", "XCoord": -71.13503081, "DATE": "1995-05-08", "CROSSING_STREET": "Bristol Arms", "SPEED_85TH": 29.0}},{"geometry": {"type": "Point", "coordinates": [-71.12098270055068, 42.37596618269046]}, "type": "Feature", "id": 240, "properties": {"DIRECTION": "EB", "YCoord": 42.37597484, "STREET": "Garden Street", "Limit": "U", "XCoord": -71.12098316, "DATE": "1991-04-03", "CROSSING_STREET": "Appian Way", "SPEED_85TH": 30.0}},{"geometry": {"type": "Point", "coordinates": [-71.12098270055068, 42.37596618269046]}, "type": "Feature", "id": 241, "properties": {"DIRECTION": "WB", "YCoord": 42.37597484, "STREET": "Garden Street", "Limit": "U", "XCoord": -71.12098316, "DATE": "1991-04-03", "CROSSING_STREET": "Appian Way", "SPEED_85TH": 32.0}},{"geometry": {"type": "Point", "coordinates": [-71.11073769836426, 42.368297764533246]}, "type": "Feature", "id": 242, "properties": {"DIRECTION": "WB", "YCoord": 42.36830642, "STREET": "Green Street", "Limit": "U", "XCoord": -71.11073815, "DATE": "1987-06-18", "CROSSING_STREET": "Bay", "SPEED_85TH": 28.0}},{"geometry": {"type": "Point", "coordinates": [-71.11345245281267, 42.36926509653592]}, "type": "Feature", "id": 243, "properties": {"DIRECTION": "WB", "YCoord": 42.36927375, "STREET": "Green Street", "Limit": "U", "XCoord": -71.1134529, "DATE": "1987-06-19", "CROSSING_STREET": "Bay & Putnam Ave", "SPEED_85TH": 31.0}},{"geometry": {"type": "Point", "coordinates": [-71.12550078831867, 42.380641257951325]}, "type": "Feature", "id": 244, "properties": {"DIRECTION": "NB", "YCoord": 42.38064991, "STREET": "Garden Street", "Limit": "U", "XCoord": -71.12550125, "DATE": "2010-03-02", "CROSSING_STREET": "Garden Lane", "SPEED_85TH": 34.0}},{"geometry": {"type": "Point", "coordinates": [-71.12550136927698, 42.38064198997175]}, "type": "Feature", "id": 245, "properties": {"DIRECTION": "SB", "YCoord": 42.38065065, "STREET": "Garden Street", "Limit": "U", "XCoord": -71.12550183, "DATE": "2010-03-02", "CROSSING_STREET": "Garden Lane", "SPEED_85TH": 33.0}},{"geometry": {"type": "Point", "coordinates": [-71.12593442339542, 42.381158255170526]}, "type": "Feature", "id": 246, "properties": {"DIRECTION": "NB", "YCoord": 42.38116691, "STREET": "Garden Street", "Limit": "U", "XCoord": -71.12593488, "DATE": "2013-10-08", "CROSSING_STREET": "Bond Street", "SPEED_85TH": 28.0}},{"geometry": {"type": "Point", "coordinates": [-71.12593442339542, 42.381158255170526]}, "type": "Feature", "id": 247, "properties": {"DIRECTION": "SB", "YCoord": 42.38116691, "STREET": "Garden Street", "Limit": "U", "XCoord": -71.12593488, "DATE": "2013-10-08", "CROSSING_STREET": "Bond Street", "SPEED_85TH": 32.0}},{"geometry": {"type": "Point", "coordinates": [-71.13503034374678, 42.386584408039326]}, "type": "Feature", "id": 248, "properties": {"DIRECTION": "EB", "YCoord": 42.38659306, "STREET": "Garden Street", "Limit": "U", "XCoord": -71.13503081, "DATE": "2013-10-08", "CROSSING_STREET": "Hazel Street", "SPEED_85TH": 28.0}},{"geometry": {"type": "Point", "coordinates": [-71.13503034374678, 42.386584408039326]}, "type": "Feature", "id": 249, "properties": {"DIRECTION": "WB", "YCoord": 42.38659306, "STREET": "Garden Street", "Limit": "U", "XCoord": -71.13503081, "DATE": "2013-10-08", "CROSSING_STREET": "Hazel Street", "SPEED_85TH": 28.0}},{"geometry": {"type": "Point", "coordinates": [-71.15095425993783, 42.37855979996412]}, "type": "Feature", "id": 250, "properties": {"DIRECTION": "NB", "YCoord": 42.37856845, "STREET": "Holworthy Street", "Limit": "U", "XCoord": -71.15095472, "DATE": "2007-01-11", "CROSSING_STREET": "Fountain Terrace", "SPEED_85TH": 24.0}},{"geometry": {"type": "Point", "coordinates": [-71.13429237233096, 42.39739971881214]}, "type": "Feature", "id": 251, "properties": {"DIRECTION": "WB", "YCoord": 42.39740838, "STREET": "Harvey Street", "Limit": "U", "XCoord": -71.13429283, "DATE": "2006-07-30", "CROSSING_STREET": "Between Montgomery & Clay Street", "SPEED_85TH": 28.0}},{"geometry": {"type": "Point", "coordinates": [-71.13429237233096, 42.39739971881214]}, "type": "Feature", "id": 252, "properties": {"DIRECTION": "WB", "YCoord": 42.39740838, "STREET": "Harvey Street", "Limit": "U", "XCoord": -71.13429283, "DATE": "2000-06-27", "CROSSING_STREET": "Between Montgomery & Clay Street", "SPEED_85TH": 28.0}},{"geometry": {"type": "Point", "coordinates": [-71.15052323238443, 42.37716877352493]}, "type": "Feature", "id": 253, "properties": {"DIRECTION": "NB", "YCoord": 42.37717743, "STREET": "Holworthy Street", "Limit": "U", "XCoord": -71.1505237, "DATE": "2003-04-15", "CROSSING_STREET": "Between Park Ave & Homes St", "SPEED_85TH": 30.0}},{"geometry": {"type": "Point", "coordinates": [-71.09765240285338, 42.371106138691786]}, "type": "Feature", "id": 254, "properties": {"DIRECTION": "NB", "YCoord": 42.37111479, "STREET": "Hampshire Street", "Limit": "U", "XCoord": -71.09765285, "DATE": "2002-07-23", "CROSSING_STREET": "Between Columbia & Prospect St", "SPEED_85TH": 28.0}},{"geometry": {"type": "Point", "coordinates": [-71.09765240285338, 42.371106138691786]}, "type": "Feature", "id": 255, "properties": {"DIRECTION": "SB", "YCoord": 42.37111479, "STREET": "Hampshire Street", "Limit": "U", "XCoord": -71.09765285, "DATE": "2002-07-23", "CROSSING_STREET": "Between Columbia & Prospect St", "SPEED_85TH": 30.0}},{"geometry": {"type": "Point", "coordinates": [-71.09765240285338, 42.371106138691786]}, "type": "Feature", "id": 256, "properties": {"DIRECTION": "NB", "YCoord": 42.37111479, "STREET": "Hampshire Street", "Limit": "U", "XCoord": -71.09765285, "DATE": "2002-07-24", "CROSSING_STREET": "Between Columbia & Prospect St", "SPEED_85TH": 30.0}},{"geometry": {"type": "Point", "coordinates": [-71.09765240285338, 42.371106138691786]}, "type": "Feature", "id": 257, "properties": {"DIRECTION": "SB", "YCoord": 42.37111479, "STREET": "Hampshire Street", "Limit": "U", "XCoord": -71.09765285, "DATE": "2002-07-24", "CROSSING_STREET": "Between Columbia & Prospect St", "SPEED_85TH": 28.0}},{"geometry": {"type": "Point", "coordinates": [-71.1136363058442, 42.381185276111715]}, "type": "Feature", "id": 258, "properties": {"DIRECTION": "EB", "YCoord": 42.38119393, "STREET": "Hammond Street", "Limit": "U", "XCoord": -71.11363676, "DATE": "2001-10-17", "CROSSING_STREET": "Howland Street", "SPEED_85TH": 27.0}},{"geometry": {"type": "Point", "coordinates": [-71.11507123152339, 42.380766511855406]}, "type": "Feature", "id": 259, "properties": {"DIRECTION": "EB", "YCoord": 42.38077517, "STREET": "Hammond Street", "Limit": "U", "XCoord": -71.11507169, "DATE": "2001-10-15", "CROSSING_STREET": "29", "SPEED_85TH": 22.0}},{"geometry": {"type": "Point", "coordinates": [-71.15052323238443, 42.37716877352493]}, "type": "Feature", "id": 260, "properties": {"DIRECTION": "NB", "YCoord": 42.37717743, "STREET": "Holworthy Street", "Limit": "U", "XCoord": -71.1505237, "DATE": "2001-10-03", "CROSSING_STREET": "Between Park Ave & Holmes St", "SPEED_85TH": 31.0}},{"geometry": {"type": "Point", "coordinates": [-71.12607096520728, 42.37526322966123]}, "type": "Feature", "id": 261, "properties": {"DIRECTION": "SB", "YCoord": 42.37527188, "STREET": "Hawthorne St", "Limit": "U", "XCoord": -71.12607142, "DATE": "2001-06-12", "CROSSING_STREET": "Mid Blk", "SPEED_85TH": 31.0}},{"geometry": {"type": "Point", "coordinates": [-71.13733674963622, 42.38129692135093]}, "type": "Feature", "id": 262, "properties": {"DIRECTION": "WB", "YCoord": 42.38130558, "STREET": "Huron Ave", "Limit": "25", "XCoord": -71.13733721, "DATE": "2001-02-01", "CROSSING_STREET": "Fayerweather", "SPEED_85TH": 29.0}},{"geometry": {"type": "Point", "coordinates": [-71.13733674963622, 42.38129692135093]}, "type": "Feature", "id": 263, "properties": {"DIRECTION": "EB", "YCoord": 42.38130558, "STREET": "Huron Ave", "Limit": "25", "XCoord": -71.13733721, "DATE": "2001-02-01", "CROSSING_STREET": "Fayerweather", "SPEED_85TH": 28.0}},{"geometry": {"type": "Point", "coordinates": [-71.13733674963622, 42.38129692135093]}, "type": "Feature", "id": 264, "properties": {"DIRECTION": "WB", "YCoord": 42.38130558, "STREET": "Huron Ave", "Limit": "25", "XCoord": -71.13733721, "DATE": "2001-02-02", "CROSSING_STREET": "Fayerweather", "SPEED_85TH": 29.0}},{"geometry": {"type": "Point", "coordinates": [-71.13733674963622, 42.38129692135093]}, "type": "Feature", "id": 265, "properties": {"DIRECTION": "EB", "YCoord": 42.38130558, "STREET": "Huron Ave", "Limit": "25", "XCoord": -71.13733721, "DATE": "2001-02-01", "CROSSING_STREET": "Fayerweather", "SPEED_85TH": 31.0}},{"geometry": {"type": "Point", "coordinates": [-71.1260968962618, 42.37520397444159]}, "type": "Feature", "id": 266, "properties": {"DIRECTION": "SB", "YCoord": 42.37521263, "STREET": "Hawthorne St", "Limit": "U", "XCoord": -71.12609735, "DATE": "2000-06-22", "CROSSING_STREET": "Mid Blk", "SPEED_85TH": 28.0}},{"geometry": {"type": "Point", "coordinates": [-71.09685867648847, 42.36663767477598]}, "type": "Feature", "id": 267, "properties": {"DIRECTION": "EB", "YCoord": 42.36664633, "STREET": "Harvard Street", "Limit": "U", "XCoord": -71.09685912, "CROSSING_STREET": "Boardman Street", "SPEED_85TH": 24.0}},{"geometry": {"type": "Point", "coordinates": [-71.13733674963622, 42.38129692135093]}, "type": "Feature", "id": 268, "properties": {"DIRECTION": "both", "YCoord": 42.38130558, "STREET": "Huron Ave", "Limit": "25", "XCoord": -71.13733721, "DATE": "2000-05-30", "CROSSING_STREET": "Fayerweather St", "SPEED_85TH": 35.0}},{"geometry": {"type": "Point", "coordinates": [-71.09685867648847, 42.36663767477598]}, "type": "Feature", "id": 269, "properties": {"DIRECTION": "EB", "YCoord": 42.36664633, "STREET": "Harvard Street", "Limit": "U", "XCoord": -71.09685912, "DATE": "2000-04-07", "CROSSING_STREET": "Boardman St", "SPEED_85TH": 26.0}},{"geometry": {"type": "Point", "coordinates": [-71.1283604703765, 42.39392545306443]}, "type": "Feature", "id": 270, "properties": {"DIRECTION": "EB", "YCoord": 42.39393411, "STREET": "Hollis Street", "Limit": "U", "XCoord": -71.12836093, "DATE": "1999-10-27", "CROSSING_STREET": "RindgeField St", "SPEED_85TH": 29.0}},{"geometry": {"type": "Point", "coordinates": [-71.1260968962618, 42.37520397444159]}, "type": "Feature", "id": 271, "properties": {"DIRECTION": "SB", "YCoord": 42.37521263, "STREET": "Hawthorn St", "Limit": "U", "XCoord": -71.12609735, "DATE": "1999-07-27", "SPEED_85TH": 29.0}},{"geometry": {"type": "Point", "coordinates": [-71.12311296032291, 42.37445172870403]}, "type": "Feature", "id": 272, "properties": {"DIRECTION": "NB", "YCoord": 42.37446038, "STREET": "Hillard Street", "Limit": "U", "XCoord": -71.12311342, "DATE": "1999-07-21", "CROSSING_STREET": "Mt Auburn & brattle St", "SPEED_85TH": 20.0}},{"geometry": {"type": "Point", "coordinates": [-71.11081290773082, 42.3711217830004]}, "type": "Feature", "id": 273, "properties": {"DIRECTION": "EB", "YCoord": 42.37113044, "STREET": "Harvard Street", "Limit": "U", "XCoord": -71.11081336, "DATE": "1990-05-04", "CROSSING_STREET": "Ellery", "SPEED_85TH": 29.0}},{"geometry": {"type": "Point", "coordinates": [-71.10078398980217, 42.36795359532441]}, "type": "Feature", "id": 274, "properties": {"DIRECTION": "EB", "YCoord": 42.36796225, "STREET": "Harvard Street", "Limit": "U", "XCoord": -71.10078444, "DATE": "1991-10-30", "CROSSING_STREET": "Essex St", "SPEED_85TH": 23.0}},{"geometry": {"type": "Point", "coordinates": [-71.10078398980217, 42.36795359532441]}, "type": "Feature", "id": 275, "properties": {"DIRECTION": "EB", "YCoord": 42.36796225, "STREET": "Harvard Street", "Limit": "U", "XCoord": -71.10078444, "DATE": "1991-12-04", "CROSSING_STREET": "Essex St", "SPEED_85TH": 29.0}},{"geometry": {"type": "Point", "coordinates": [-71.13089830240155, 42.39719460245765]}, "type": "Feature", "id": 276, "properties": {"DIRECTION": "WB", "YCoord": 42.39720326, "STREET": "Harvey Street", "Limit": "U", "XCoord": -71.13089876, "DATE": "1991-10-02", "CROSSING_STREET": "Cedar", "SPEED_85TH": 27.0}},{"geometry": {"type": "Point", "coordinates": [-71.13410217884538, 42.38151246136199]}, "type": "Feature", "id": 277, "properties": {"DIRECTION": "WB", "YCoord": 42.38152112, "STREET": "Huron Ave", "Limit": "25", "XCoord": -71.13410264, "DATE": "1991-09-17", "CROSSING_STREET": "Appleton St", "SPEED_85TH": 33.0}},{"geometry": {"type": "Point", "coordinates": [-71.13410217884538, 42.38151246136199]}, "type": "Feature", "id": 278, "properties": {"DIRECTION": "WB", "YCoord": 42.38152112, "STREET": "Huron Ave", "Limit": "25", "XCoord": -71.13410264, "DATE": "1991-10-11", "CROSSING_STREET": "Appleton St", "SPEED_85TH": 31.0}},{"geometry": {"type": "Point", "coordinates": [-71.13410217884538, 42.38151246136199]}, "type": "Feature", "id": 279, "properties": {"DIRECTION": "EB", "YCoord": 42.38152112, "STREET": "Huron Ave", "Limit": "25", "XCoord": -71.13410264, "DATE": "1991-09-30", "CROSSING_STREET": "Appleton St", "SPEED_85TH": 34.0}},{"geometry": {"type": "Point", "coordinates": [-71.13410217884538, 42.38151246136199]}, "type": "Feature", "id": 280, "properties": {"DIRECTION": "EB", "YCoord": 42.38152112, "STREET": "Huron Ave", "Limit": "25", "XCoord": -71.13410264, "DATE": "1995-09-10", "CROSSING_STREET": "Appleton St", "SPEED_85TH": 32.0}},{"geometry": {"type": "Point", "coordinates": [-71.14128165509038, 42.380673627110795]}, "type": "Feature", "id": 281, "properties": {"DIRECTION": "EB", "YCoord": 42.38068228, "STREET": "Huron Ave", "Limit": "25", "XCoord": -71.14128212, "DATE": "1988-11-18", "CROSSING_STREET": "Lexington St", "SPEED_85TH": 39.0}},{"geometry": {"type": "Point", "coordinates": [-71.14128165509038, 42.380673627110795]}, "type": "Feature", "id": 282, "properties": {"DIRECTION": "WB", "YCoord": 42.38068228, "STREET": "Huron Ave", "Limit": "25", "XCoord": -71.14128212, "DATE": "1988-11-08", "CROSSING_STREET": "Lexington St", "SPEED_85TH": 38.0}},{"geometry": {"type": "Point", "coordinates": [-71.13493442303147, 42.381483548522084]}, "type": "Feature", "id": 283, "properties": {"DIRECTION": "EB", "YCoord": 42.3814922, "STREET": "Huron Ave", "Limit": "25", "XCoord": -71.13493488, "DATE": "1988-11-09", "CROSSING_STREET": "Blakeslee St", "SPEED_85TH": 30.0}},{"geometry": {"type": "Point", "coordinates": [-71.13493442303147, 42.381483548522084]}, "type": "Feature", "id": 284, "properties": {"DIRECTION": "WB", "YCoord": 42.3814922, "STREET": "Huron Ave", "Limit": "25", "XCoord": -71.13493488, "DATE": "1999-11-08", "CROSSING_STREET": "Blakeslee St", "SPEED_85TH": 29.0}},{"geometry": {"type": "Point", "coordinates": [-71.13224645675851, 42.38147262724744]}, "type": "Feature", "id": 285, "properties": {"DIRECTION": "WB", "YCoord": 42.38148128, "STREET": "Huron Ave", "Limit": "25", "XCoord": -71.13224692, "DATE": "1988-11-10", "CROSSING_STREET": "Sparks & Bend St", "SPEED_85TH": 22.0}},{"geometry": {"type": "Point", "coordinates": [-71.13224645675851, 42.38147262724744]}, "type": "Feature", "id": 286, "properties": {"DIRECTION": "EB", "YCoord": 42.38148128, "STREET": "Huron Ave", "Limit": "25", "XCoord": -71.13224692, "DATE": "1988-11-10", "CROSSING_STREET": "Sparks & Bend St", "SPEED_85TH": 24.0}},{"geometry": {"type": "Point", "coordinates": [-71.1423182748105, 42.380472914671664]}, "type": "Feature", "id": 287, "properties": {"DIRECTION": "WB", "YCoord": 42.38048157, "STREET": "Huron Avenue", "Limit": "25", "XCoord": -71.14231874, "DATE": "2008-01-31", "CROSSING_STREET": "Grozier Road", "SPEED_85TH": 34.0}},{"geometry": {"type": "Point", "coordinates": [-71.1423182748105, 42.380472914671664]}, "type": "Feature", "id": 288, "properties": {"DIRECTION": "EB", "YCoord": 42.38048157, "STREET": "Huron Avenue", "Limit": "25", "XCoord": -71.14231874, "DATE": "2008-02-12", "CROSSING_STREET": "Grozier Road", "SPEED_85TH": 34.0}},{"geometry": {"type": "Point", "coordinates": [-71.13706490958458, 42.39922244494974]}, "type": "Feature", "id": 289, "properties": {"DIRECTION": "SB", "YCoord": 42.3992311, "STREET": "Harrison Avenue", "Limit": "U", "XCoord": -71.13706537, "DATE": "2008-01-31", "SPEED_85TH": 24.0}},{"geometry": {"type": "Point", "coordinates": [-71.14385104832529, 42.38017666331987]}, "type": "Feature", "id": 290, "properties": {"DIRECTION": "EB", "YCoord": 42.38018532, "STREET": "Huron Avenue", "Limit": "25", "XCoord": -71.14385151, "DATE": "2012-05-03", "CROSSING_STREET": "Fresh Pond Parkway", "SPEED_85TH": 30.0}},{"geometry": {"type": "Point", "coordinates": [-71.1437353222017, 42.38019852036487]}, "type": "Feature", "id": 291, "properties": {"DIRECTION": "WB", "YCoord": 42.38020718, "STREET": "Huron Avenue", "Limit": "25", "XCoord": -71.14373579, "DATE": "2012-05-03", "CROSSING_STREET": "Fresh Pond Parkway", "SPEED_85TH": 28.0}},{"geometry": {"type": "Point", "coordinates": [-71.13963785133863, 42.380992693211674]}, "type": "Feature", "id": 292, "properties": {"DIRECTION": "EB", "YCoord": 42.38100135, "STREET": "Huron Avenue", "Limit": "25", "XCoord": -71.13963831, "DATE": "2012-05-03", "CROSSING_STREET": "Lakeview Avenue", "SPEED_85TH": 30.0}},{"geometry": {"type": "Point", "coordinates": [-71.13952400479936, 42.38101448349156]}, "type": "Feature", "id": 293, "properties": {"DIRECTION": "WB", "YCoord": 42.38102314, "STREET": "Huron Avenue", "Limit": "25", "XCoord": -71.13952447, "DATE": "2012-05-03", "CROSSING_STREET": "Lakeview Avenue", "SPEED_85TH": 29.0}},{"geometry": {"type": "Point", "coordinates": [-71.13702932557175, 42.38131997407863]}, "type": "Feature", "id": 294, "properties": {"DIRECTION": "EB", "YCoord": 42.38132863, "STREET": "Huron Avenue", "Limit": "25", "XCoord": -71.13702979, "DATE": "2012-05-03", "CROSSING_STREET": "Fayerweather Street", "SPEED_85TH": 29.0}},{"geometry": {"type": "Point", "coordinates": [-71.13689377562855, 42.381330499176435]}, "type": "Feature", "id": 295, "properties": {"DIRECTION": "WB", "YCoord": 42.38133915, "STREET": "Huron Avenue", "Limit": "25", "XCoord": -71.13689424, "DATE": "2012-05-03", "CROSSING_STREET": "Fayerweather Street", "SPEED_85TH": 30.0}},{"geometry": {"type": "Point", "coordinates": [-71.13144302145676, 42.38209173712203]}, "type": "Feature", "id": 296, "properties": {"DIRECTION": "EB", "YCoord": 42.38210039, "STREET": "Huron Avenue", "Limit": "25", "XCoord": -71.13144348, "DATE": "2012-05-03", "CROSSING_STREET": "Concord Avenue", "SPEED_85TH": 29.0}},{"geometry": {"type": "Point", "coordinates": [-71.1313553411145, 42.38216126048328]}, "type": "Feature", "id": 297, "properties": {"DIRECTION": "WB", "YCoord": 42.38216992, "STREET": "Huron Avenue", "Limit": "25", "XCoord": -71.1313558, "DATE": "2012-05-03", "CROSSING_STREET": "Concord Avenue", "SPEED_85TH": 29.0}},{"geometry": {"type": "Point", "coordinates": [-71.12604418286305, 42.375323731700945]}, "type": "Feature", "id": 298, "properties": {"DIRECTION": "SB", "YCoord": 42.37533239, "STREET": "Hawthorne Street", "Limit": "U", "XCoord": -71.12604464, "DATE": "2013-06-18", "CROSSING_STREET": "#28", "SPEED_85TH": 27.0}},{"geometry": {"type": "Point", "coordinates": [-71.12601616846443, 42.375386012290264]}, "type": "Feature", "id": 299, "properties": {"DIRECTION": "SB", "YCoord": 42.37539467, "STREET": "Hawthorne Street", "Limit": "U", "XCoord": -71.12601663, "DATE": "2013-08-27", "CROSSING_STREET": "Acacia Street", "SPEED_85TH": 23.0}},{"geometry": {"type": "Point", "coordinates": [-71.12835572338203, 42.39392801883542]}, "type": "Feature", "id": 300, "properties": {"DIRECTION": "EB", "YCoord": 42.39393668, "STREET": "Hollis Street", "Limit": "U", "XCoord": -71.12835618, "DATE": "2013-10-22", "CROSSING_STREET": "Rindgefield Street", "SPEED_85TH": 24.0}},{"geometry": {"type": "Point", "coordinates": [-71.10185822851777, 42.37159097417098]}, "type": "Feature", "id": 301, "properties": {"DIRECTION": "SB", "YCoord": 42.37159963, "STREET": "Inman Street", "Limit": "U", "XCoord": -71.10185868, "DATE": "2000-08-08", "CROSSING_STREET": "Before St Mary's Road", "SPEED_85TH": 29.0}},{"geometry": {"type": "Point", "coordinates": [-71.10185822851777, 42.37159097417098]}, "type": "Feature", "id": 302, "properties": {"DIRECTION": "SB", "YCoord": 42.37159963, "STREET": "Inman Street", "Limit": "U", "XCoord": -71.10185868, "DATE": "2000-08-10", "CROSSING_STREET": "Before St Mary's Road", "SPEED_85TH": 26.0}},{"geometry": {"type": "Point", "coordinates": [-71.11063854264428, 42.378283341686554]}, "type": "Feature", "id": 303, "properties": {"DIRECTION": "NB", "YCoord": 42.378292, "STREET": "Irving Street", "Limit": "U", "XCoord": -71.110639, "DATE": "2011-03-29", "CROSSING_STREET": "Scott Street", "SPEED_85TH": 29.0}},{"geometry": {"type": "Point", "coordinates": [-71.11063854264428, 42.378283341686554]}, "type": "Feature", "id": 304, "properties": {"DIRECTION": "SB", "YCoord": 42.378292, "STREET": "Irving Street", "Limit": "U", "XCoord": -71.110639, "DATE": "2011-03-29", "CROSSING_STREET": "Scott Street", "SPEED_85TH": 0.0}},{"geometry": {"type": "Point", "coordinates": [-71.1019919218092, 42.371401021901704]}, "type": "Feature", "id": 305, "properties": {"DIRECTION": "SB", "YCoord": 42.37140968, "STREET": "Inman Street", "Limit": "U", "XCoord": -71.10199237, "DATE": "2014-01-14", "CROSSING_STREET": "St. Mary's Street", "SPEED_85TH": 26.0}},{"geometry": {"type": "Point", "coordinates": [-71.10974583524222, 42.36271196069708]}, "type": "Feature", "id": 306, "properties": {"DIRECTION": "EB", "YCoord": 42.36272061, "STREET": "Kelly Road", "Limit": "U", "XCoord": -71.10974629, "DATE": "1991-07-22", "CROSSING_STREET": "Pleasant St", "SPEED_85TH": 24.0}},{"geometry": {"type": "Point", "coordinates": [-71.10974583524222, 42.36271196069708]}, "type": "Feature", "id": 307, "properties": {"DIRECTION": "EB", "YCoord": 42.36272061, "STREET": "Kelly Road", "Limit": "U", "XCoord": -71.10974629, "DATE": "1991-07-16", "CROSSING_STREET": "Pleasant St", "SPEED_85TH": 24.0}},{"geometry": {"type": "Point", "coordinates": [-71.11052072009996, 42.36327081260163]}, "type": "Feature", "id": 308, "properties": {"DIRECTION": "EB", "YCoord": 42.36327946, "STREET": "Kelly Road", "Limit": "U", "XCoord": -71.11052117, "DATE": "1991-07-15", "CROSSING_STREET": "River Street", "SPEED_85TH": 22.0}},{"geometry": {"type": "Point", "coordinates": [-71.11052072009996, 42.36327081260163]}, "type": "Feature", "id": 309, "properties": {"DIRECTION": "WB", "YCoord": 42.36327946, "STREET": "Kelly Road", "Limit": "U", "XCoord": -71.11052117, "DATE": "1991-07-15", "CROSSING_STREET": "River Street", "SPEED_85TH": 20.0}},{"geometry": {"type": "Point", "coordinates": [-71.11010972888624, 42.36295895882553]}, "type": "Feature", "id": 310, "properties": {"DIRECTION": "SB", "YCoord": 42.36296761, "STREET": "Kelly Road", "Limit": "U", "XCoord": -71.11011018, "DATE": "1990-11-09", "CROSSING_STREET": "Between River & Pleasant", "SPEED_85TH": 22.0}},{"geometry": {"type": "Point", "coordinates": [-71.10815613320594, 42.36176311398951]}, "type": "Feature", "id": 311, "properties": {"DIRECTION": "SB", "YCoord": 42.36177177, "STREET": "Kelly Road", "Limit": "U", "XCoord": -71.10815658, "DATE": "1990-11-09", "CROSSING_STREET": "Between Pleasant & Magazine Street", "SPEED_85TH": 23.0}},{"geometry": {"type": "Point", "coordinates": [-71.11064327717781, 42.37735439786132]}, "type": "Feature", "id": 312, "properties": {"DIRECTION": "EB", "YCoord": 42.37736305, "STREET": "Kirkland Street", "Limit": "U", "XCoord": -71.11064373, "DATE": "1990-11-28", "CROSSING_STREET": "Irving St", "SPEED_85TH": 33.0}},{"geometry": {"type": "Point", "coordinates": [-71.11064327717781, 42.37735439786132]}, "type": "Feature", "id": 313, "properties": {"DIRECTION": "WB", "YCoord": 42.37736305, "STREET": "Kirkland Street", "Limit": "U", "XCoord": -71.11064373, "DATE": "1990-11-28", "CROSSING_STREET": "Irving St", "SPEED_85TH": 34.0}},{"geometry": {"type": "Point", "coordinates": [-71.138022794564, 42.39912468833373]}, "type": "Feature", "id": 314, "properties": {"DIRECTION": "NB", "YCoord": 42.39913335, "STREET": "Kimball Street", "Limit": "U", "XCoord": -71.13802326, "DATE": "2008-02-19", "SPEED_85TH": 21.0}},{"geometry": {"type": "Point", "coordinates": [-71.11112885365775, 42.36712157648057]},