{"type":"FeatureCollection","features":[{"geometry": {"type": "Point", "coordinates": [-71.07980041456499, 42.36765958127175]}, "type": "Feature", "id": 1, "properties": {"MapID": 14.0, "PARK": "Anthony Costa Park Community Garden", "LOCATION": "Lopez Ave at Charles St", "GlobalID": "{337ED14F-E29F-4804-B553-26416AFCB3E3}"}},{"geometry": {"type": "Point", "coordinates": [-71.08284454340327, 42.368457313622415]}, "type": "Feature", "id": 2, "properties": {"EditDate": "2016", "MapID": 13.0, "PARK": "Hurley Park Community Garden", "LOCATION": "Hurley St", "GlobalID": "{62B0C40C-4C9B-4869-9BA1-D3084E7E3F4C}"}},{"geometry": {"type": "Point", "coordinates": [-71.14916800962276, 42.38887236913092]}, "type": "Feature", "id": 3, "properties": {"MapID": 1.0, "PARK": "William G. Maher Park Comm. Garden", "LOCATION": "650 Concord Ave", "GlobalID": "{EDBF90E7-5041-4B43-B19F-D9AE2C1E3456}"}},{"geometry": {"type": "Point", "coordinates": [-71.14149578565707, 42.38606891294191]}, "type": "Feature", "id": 4, "properties": {"MapID": 2.0, "PARK": "Fresh Pond Res./Parkway Garden", "LOCATION": "Fresh Pond Parkway", "GlobalID": "{CBACC23E-A0A7-45BC-99C6-C20137A48927}"}},{"geometry": {"type": "Point", "coordinates": [-71.12730245134264, 42.38993519897225]}, "type": "Feature", "id": 5, "properties": {"MapID": 3.0, "PARK": "McMath Park Community Garden", "LOCATION": "Pemberton St", "GlobalID": "{D448324A-239E-4734-96FF-596DBD0FF839}"}},{"geometry": {"type": "Point", "coordinates": [-71.12845369210959, 42.38681082878464]}, "type": "Feature", "id": 6, "properties": {"MapID": 4.0, "PARK": "Corcoran Park Community Garden", "LOCATION": "Walden St", "GlobalID": "{ADC14AAC-C5F1-4496-B24B-F93FE3901BC2}"}},{"geometry": {"type": "Point", "coordinates": [-71.11756417041825, 42.38277356016619]}, "type": "Feature", "id": 7, "properties": {"MapID": 5.0, "PARK": "Sacramento Street Community Garden", "LOCATION": "Sacramento St", "GlobalID": "{B9865011-B567-4466-85A0-0A1ABE37B591}"}},{"geometry": {"type": "Point", "coordinates": [-71.1142988745778, 42.36609496573905]}, "type": "Feature", "id": 8, "properties": {"MapID": 6.0, "PARK": "Field of Dreams Garden", "LOCATION": "Banks St at Akron St", "GlobalID": "{5D1ACFF5-0914-4F06-9C89-8216D5E3E38E}"}},{"geometry": {"type": "Point", "coordinates": [-71.11100708142155, 42.36850813977935]}, "type": "Feature", "id": 9, "properties": {"MapID": 7.0, "PARK": "Green Street Neighborhood Garden", "LOCATION": "Green St at Bay St", "GlobalID": "{012276C4-88AA-427B-A72D-F2E5B3A42F41}"}},{"geometry": {"type": "Point", "coordinates": [-71.11580219968894, 42.36225156539416]}, "type": "Feature", "id": 10, "properties": {"EditDate": "2012", "MapID": 8.0, "PARK": "Riverside Press Park", "LOCATION": "Memorial Dr at River St", "GlobalID": "{A01AA697-3FA1-44D3-AD9F-30702EBAB7EB}"}},{"geometry": {"type": "Point", "coordinates": [-71.1043101383121, 42.361909081853]}, "type": "Feature", "id": 11, "properties": {"MapID": 9.0, "PARK": "Peggy Hayes Memorial Garden", "LOCATION": "Watson St", "GlobalID": "{F4BFC58C-C29B-4CAD-BF10-EB625CAE127F}"}},{"geometry": {"type": "Point", "coordinates": [-71.10492258195386, 42.36003074991497]}, "type": "Feature", "id": 12, "properties": {"MapID": 10.0, "PARK": "Emily Garden", "LOCATION": "Brookline St at Emily St", "GlobalID": "{807DABAC-D0CF-425B-8C06-B5525E06C68F}"}},{"geometry": {"type": "Point", "coordinates": [-71.0968274603121, 42.367405519204056]}, "type": "Feature", "id": 13, "properties": {"MapID": 11.0, "PARK": "Squirrel Brand Community Garden", "LOCATION": "Broadway at Boardman St", "GlobalID": "{D6406442-11E4-4CA1-B3E3-B5CA12355525}"}},{"geometry": {"type": "Point", "coordinates": [-71.09400390103553, 42.365937834109836]}, "type": "Feature", "id": 14, "properties": {"MapID": 12.0, "PARK": "Moore Street Community Garden", "LOCATION": "Moore St", "GlobalID": "{0E7CF792-48D2-46C4-BD0E-40FD6703CB4B}"}}]}