{"type":"FeatureCollection","features":[{"geometry": {"type": "Point", "coordinates": [-71.0968274603121, 42.367405519204056]}, "type": "Feature", "id": 1, "properties": {"MapID": 11.0, "PARK": "Squirrel Brand Community Garden", "LOCATION": "Broadway at Boardman St", "GlobalID": "{CBDB2C54-6F89-406D-A24D-D28E3D0286CC}"}},{"geometry": {"type": "Point", "coordinates": [-71.12845369210959, 42.38681082878464]}, "type": "Feature", "id": 2, "properties": {"MapID": 4.0, "PARK": "Corcoran Park Community Garden", "LOCATION": "Walden St", "GlobalID": "{F9949444-9C14-4F2A-9FC2-2E5F366BF168}"}},{"geometry": {"type": "Point", "coordinates": [-71.14916800962276, 42.3888723691309]}, "type": "Feature", "id": 3, "properties": {"MapID": 1.0, "PARK": "William G. Maher Park Comm. Garden", "LOCATION": "650 Concord Ave", "GlobalID": "{732C5362-927C-452B-9FB2-8CC612247669}"}},{"geometry": {"type": "Point", "coordinates": [-71.11100708142155, 42.36850813977935]}, "type": "Feature", "id": 4, "properties": {"MapID": 7.0, "PARK": "Green Street Neighborhood Garden", "LOCATION": "Green St at Bay St", "GlobalID": "{BDFF0BB7-3114-4156-BD46-10CA4221EE81}"}},{"geometry": {"type": "Point", "coordinates": [-71.12730245134264, 42.38993519897225]}, "type": "Feature", "id": 5, "properties": {"MapID": 3.0, "PARK": "McMath Park Community Garden", "LOCATION": "Pemberton St", "GlobalID": "{FC14B21E-C9F3-4941-9C1F-D7EDE9DAC157}"}},{"geometry": {"type": "Point", "coordinates": [-71.09400390103553, 42.365937834109836]}, "type": "Feature", "id": 6, "properties": {"MapID": 12.0, "PARK": "Moore Street Community Garden", "LOCATION": "Moore St", "GlobalID": "{5B232A18-FE0D-4DD0-A667-CA0BF8AACEA7}"}},{"geometry": {"type": "Point", "coordinates": [-71.1043101383121, 42.361909081853]}, "type": "Feature", "id": 7, "properties": {"MapID": 9.0, "PARK": "Peggy Hayes Memorial Garden", "LOCATION": "Watson St", "GlobalID": "{9AD593FF-C8AA-4369-B8F3-FAD08FA5BDE8}"}},{"geometry": {"type": "Point", "coordinates": [-71.11756417041825, 42.38277356016619]}, "type": "Feature", "id": 8, "properties": {"MapID": 5.0, "PARK": "Sacramento Street Community Garden", "LOCATION": "Sacramento St", "GlobalID": "{8043C877-1D9E-4363-BC15-4FD7AC21079C}"}},{"geometry": {"type": "Point", "coordinates": [-71.10492258195386, 42.36003074991497]}, "type": "Feature", "id": 9, "properties": {"MapID": 10.0, "PARK": "Emily Garden", "LOCATION": "Brookline St at Emily St", "GlobalID": "{8B15CB2A-DF5A-4E8F-B173-17A343CCAEFC}"}},{"geometry": {"type": "Point", "coordinates": [-71.1142988745778, 42.36609496573905]}, "type": "Feature", "id": 10, "properties": {"MapID": 6.0, "PARK": "Field of Dreams Garden", "LOCATION": "Banks St at Akron St", "GlobalID": "{D3ED5E02-6DC4-4251-82C4-57A0F81025B4}"}},{"geometry": {"type": "Point", "coordinates": [-71.08284454340327, 42.368457313622415]}, "type": "Feature", "id": 11, "properties": {"EditDate": "2016", "MapID": 13.0, "PARK": "Hurley Park Community Garden", "LOCATION": "Hurley St", "GlobalID": "{299A465D-EAED-40FA-AB52-FB3791231DAA}"}},{"geometry": {"type": "Point", "coordinates": [-71.07980041456499, 42.36765958127175]}, "type": "Feature", "id": 12, "properties": {"MapID": 14.0, "PARK": "Anthony Costa Park Community Garden", "LOCATION": "Lopez Ave at Charles St", "GlobalID": "{60E9EDC6-444F-4198-AACD-F47BF7475F22}"}},{"geometry": {"type": "Point", "coordinates": [-71.11580219968894, 42.36225156539416]}, "type": "Feature", "id": 13, "properties": {"EditDate": "2012", "MapID": 8.0, "PARK": "Riverside Press Park", "LOCATION": "Memorial Dr at River St", "GlobalID": "{F647D3D0-98BB-4793-9CB7-BF4006BA9AEC}"}},{"geometry": {"type": "Point", "coordinates": [-71.14186035913639, 42.384818443966196]}, "type": "Feature", "id": 14, "properties": {"MapID": 2.0, "PARK": "Fresh Pond Res./Parkway Garden", "LOCATION": "Fresh Pond Parkway", "GlobalID": "{3BEA6B83-777D-4736-A649-112CAF43F1F0}"}}]}