{"type":"FeatureCollection","features":[{"geometry": {"type": "Point", "coordinates": [-71.0967784381276, 42.36744989578078]}, "type": "Feature", "id": 1, "properties": {"MapID": 12.0, "PARK": "Squirrel Brand Community Garden", "LOCATION": "Broadway at Boardman St", "GlobalID": "{2938C341-A4B0-4CF5-BD19-88089AEA1126}"}},{"geometry": {"type": "Point", "coordinates": [-71.12845369210959, 42.38681082878464]}, "type": "Feature", "id": 2, "properties": {"MapID": 5.0, "PARK": "Corcoran Park Community Garden", "LOCATION": "Walden St", "GlobalID": "{11D8ECCF-66DA-4AAB-A754-DA13887C9704}"}},{"geometry": {"type": "Point", "coordinates": [-71.11100708142155, 42.36850813977935]}, "type": "Feature", "id": 7, "properties": {"MapID": 8.0, "PARK": "Green Street Neighborhood Garden", "LOCATION": "Green St at Bay St", "GlobalID": "{A679D0C5-1C39-46BF-8E90-160D490806A9}"}},{"geometry": {"type": "Point", "coordinates": [-71.12730245134264, 42.38993519897225]}, "type": "Feature", "id": 8, "properties": {"MapID": 4.0, "PARK": "McMath Park Community Garden", "LOCATION": "Pemberton St", "GlobalID": "{0EDA1FC8-A851-4DFD-8AEE-E220487FE3D2}"}},{"geometry": {"type": "Point", "coordinates": [-71.09400390103553, 42.365937834109836]}, "type": "Feature", "id": 9, "properties": {"MapID": 13.0, "PARK": "Moore Street Community Garden", "LOCATION": "Moore St", "GlobalID": "{AE9DF86D-B80B-4EF8-BD1F-BFBA0C6DB6BA}"}},{"geometry": {"type": "Point", "coordinates": [-71.1043101383121, 42.361909081853]}, "type": "Feature", "id": 10, "properties": {"MapID": 10.0, "PARK": "Peggy Hayes Memorial Garden", "LOCATION": "Watson St", "GlobalID": "{A2DF1047-C1B9-4F75-A6C0-DFE3243B7A5E}"}},{"geometry": {"type": "Point", "coordinates": [-71.11756417041825, 42.38277356016619]}, "type": "Feature", "id": 11, "properties": {"MapID": 6.0, "PARK": "Sacramento Street Community Garden", "LOCATION": "Sacramento St", "GlobalID": "{F3DACC73-06EF-4EBC-965A-91CCD956B96C}"}},{"geometry": {"type": "Point", "coordinates": [-71.10492258195386, 42.36003074991497]}, "type": "Feature", "id": 12, "properties": {"MapID": 11.0, "PARK": "Emily Garden", "LOCATION": "Brookline St at Emily St", "GlobalID": "{5B609DBA-E2EB-49BD-961D-750998F92B43}"}},{"geometry": {"type": "Point", "coordinates": [-71.13553374193792, 42.39870978481026]}, "type": "Feature", "id": 14, "properties": {"EditDate": "2012", "MapID": 1.0, "PARK": "Whittemore Avenue Garden", "LOCATION": "Whittemore Ave at Magoun", "GlobalID": "{912DF9E2-9A34-493B-8991-B701E4CDE954}"}},{"geometry": {"type": "Point", "coordinates": [-71.1488674271201, 42.38930096087703]}, "type": "Feature", "id": 4, "properties": {"MapID": 2.0, "PARK": "William G. Maher Park Comm. Garden", "LOCATION": "650 Concord Ave", "GlobalID": "{0F4EE986-F741-4B67-963C-584EBAA47F6D}"}},{"geometry": {"type": "Point", "coordinates": [-71.07980041456499, 42.36765958127175]}, "type": "Feature", "id": 15, "properties": {"MapID": 14.0, "PARK": "Anthony Costa Park Community Garden", "LOCATION": "Lopez Ave at Charles St", "GlobalID": "{D2C9DBFA-9336-4EA8-A9A7-DF4A2BBFA173}"}},{"geometry": {"type": "Point", "coordinates": [-71.11409539717641, 42.36619178460376]}, "type": "Feature", "id": 13, "properties": {"MapID": 7.0, "PARK": "Field of Dreams Garden", "LOCATION": "Banks St at Akron St", "GlobalID": "{8C95DFF2-946A-4BF5-9E37-A904513B7210}"}},{"geometry": {"type": "Point", "coordinates": [-71.14149578565707, 42.38606891294191]}, "type": "Feature", "id": 5, "properties": {"MapID": 3.0, "PARK": "Fresh Pond Res./Parkway Garden", "LOCATION": "Fresh Pond Parkway", "GlobalID": "{36CE610B-2B46-4D81-9182-C09C6D3C031F}"}},{"geometry": {"type": "Point", "coordinates": [-71.1157647735975, 42.362255643096915]}, "type": "Feature", "id": 16, "properties": {"EditDate": "2012", "MapID": 9.0, "PARK": "Riverside Press Park", "LOCATION": "Memorial Dr at River St", "GlobalID": "{02E765CE-A05A-4DD6-A501-7516AFE30F25}"}}]}