{"type":"FeatureCollection","features":[{"geometry": {"type": "Point", "coordinates": [-71.14186035913639, 42.384818443966196]}, "type": "Feature", "id": 1, "properties": {"MapID": 2.0, "PARK": "Fresh Pond Res./Parkway Garden", "LOCATION": "Fresh Pond Parkway", "GlobalID": "{F97D7B01-017F-47DD-A6B5-58629A96F497}"}},{"geometry": {"type": "Point", "coordinates": [-71.11100708142155, 42.36850813977935]}, "type": "Feature", "id": 2, "properties": {"MapID": 7.0, "PARK": "Green Street Neighborhood Garden", "LOCATION": "Green St at Bay St", "GlobalID": "{EA113746-15BA-4416-83B7-905922BFD9CC}"}},{"geometry": {"type": "Point", "coordinates": [-71.1043101383121, 42.361909081853]}, "type": "Feature", "id": 3, "properties": {"MapID": 9.0, "PARK": "Peggy Hayes Memorial Garden", "LOCATION": "Watson St", "GlobalID": "{DE917719-6424-48CB-827B-FE090E9F0C47}"}},{"geometry": {"type": "Point", "coordinates": [-71.1142988745778, 42.36609496573905]}, "type": "Feature", "id": 4, "properties": {"MapID": 6.0, "PARK": "Field of Dreams Garden", "LOCATION": "Banks St at Akron St", "GlobalID": "{E5163B85-0103-4AFC-B097-AE2C0B51C4BD}"}},{"geometry": {"type": "Point", "coordinates": [-71.0968274603121, 42.367405519204056]}, "type": "Feature", "id": 5, "properties": {"GlobalID": "{1118C815-E30C-4A91-869C-0CEEA1F4F99F}", "PARK": "Squirrel Brand Garden", "MapID": 11.0, "LOCATION": "Broadway at Boardman St", "last_edited_date": "2026-01-07", "last_edited_user": "KGRILLO"}},{"geometry": {"type": "Point", "coordinates": [-71.12845369210959, 42.38681082878464]}, "type": "Feature", "id": 6, "properties": {"GlobalID": "{58225F40-8C4B-448F-BDC2-E30570E309DB}", "PARK": "Corcoran/Raymond Park Garden", "MapID": 4.0, "LOCATION": "Walden St", "last_edited_date": "2026-01-07", "last_edited_user": "KGRILLO"}},{"geometry": {"type": "Point", "coordinates": [-71.14916800962276, 42.3888723691309]}, "type": "Feature", "id": 7, "properties": {"GlobalID": "{74203825-BCCD-4267-849A-D7DEC27C2483}", "PARK": "William G. Maher Park Garden", "MapID": 1.0, "LOCATION": "650 Concord Ave", "last_edited_date": "2026-01-07", "last_edited_user": "KGRILLO"}},{"geometry": {"type": "Point", "coordinates": [-71.12730245134264, 42.38993519897225]}, "type": "Feature", "id": 8, "properties": {"GlobalID": "{7B337161-E20C-45B6-B3B6-FDE46876003B}", "PARK": "McMath Park Garden", "MapID": 3.0, "LOCATION": "Pemberton St", "last_edited_date": "2026-01-07", "last_edited_user": "KGRILLO"}},{"geometry": {"type": "Point", "coordinates": [-71.09400390103553, 42.365937834109836]}, "type": "Feature", "id": 9, "properties": {"GlobalID": "{3EB7AB22-40A5-4693-AF56-E272DC4292B6}", "PARK": "Moore Street Garden", "MapID": 12.0, "LOCATION": "Moore St", "last_edited_date": "2026-01-07", "last_edited_user": "KGRILLO"}},{"geometry": {"type": "Point", "coordinates": [-71.11756417041825, 42.38277356016619]}, "type": "Feature", "id": 10, "properties": {"GlobalID": "{6C0EB360-A662-4E00-A870-A0DB0AFA412A}", "PARK": "Sacramento Street Garden", "MapID": 5.0, "LOCATION": "Sacramento St", "last_edited_date": "2026-01-07", "last_edited_user": "KGRILLO"}},{"geometry": {"type": "Point", "coordinates": [-71.10492258195386, 42.36003074991497]}, "type": "Feature", "id": 11, "properties": {"GlobalID": "{21E340D0-1C2E-41F7-B39E-7EBA08D24A58}", "PARK": "Emily Street/Simplex Garden", "MapID": 10.0, "LOCATION": "Brookline St at Emily St", "last_edited_date": "2026-01-07", "last_edited_user": "KGRILLO"}},{"geometry": {"type": "Point", "coordinates": [-71.08284454340327, 42.368457313622415]}, "type": "Feature", "id": 12, "properties": {"GlobalID": "{D00ABB2E-8B44-4055-BC5E-457EF96E60BC}", "EditDate": "2016", "PARK": "Hurley Park Garden", "MapID": 13.0, "LOCATION": "Hurley St", "last_edited_date": "2026-01-07", "last_edited_user": "KGRILLO"}},{"geometry": {"type": "Point", "coordinates": [-71.07980041456499, 42.36765958127175]}, "type": "Feature", "id": 13, "properties": {"GlobalID": "{D6A3131C-9A84-402D-BA46-201F37BF06F7}", "PARK": "Anthony Costa Park Garden", "MapID": 14.0, "LOCATION": "Lopez Ave at Charles St", "last_edited_date": "2026-01-07", "last_edited_user": "KGRILLO"}},{"geometry": {"type": "Point", "coordinates": [-71.11580219968894, 42.36225156539416]}, "type": "Feature", "id": 14, "properties": {"GlobalID": "{8703B028-57F8-4369-84AF-6230E1C79CAA}", "EditDate": "2012", "PARK": "Riverside Press Park Garden", "MapID": 8.0, "LOCATION": "Memorial Dr at River St", "last_edited_date": "2026-01-07", "last_edited_user": "KGRILLO"}}]}