{"type":"FeatureCollection","features":[{"geometry": {"type": "Point", "coordinates": [-71.12297623036204, 42.37663667015214]}, "type": "Feature", "id": 1, "properties": {"SITE_NAME": "First Church Congregational", "GlobalID": "{744632CF-4EA7-4A53-AFD8-EDF98FD11144}", "ADDRESS": "11 Garden Street"}},{"geometry": {"type": "Point", "coordinates": [-71.11573347596291, 42.371215964494056]}, "type": "Feature", "id": 2, "properties": {"SITE_NAME": "St. Paul's Catholic Church", "GlobalID": "{B5189549-F016-4808-AA70-4FF77EAFC5E9}", "ADDRESS": "16 Arrow Street"}},{"geometry": {"type": "Point", "coordinates": [-71.11956031793413, 42.39093378055157]}, "type": "Feature", "id": 3, "properties": {"SITE_NAME": "First Brazilian Baptist Church", "GlobalID": "{B12646A5-BEC4-4824-A4B1-3BDAA2EA291C}", "ADDRESS": "16 Beech Street"}},{"geometry": {"type": "Point", "coordinates": [-71.11969537315454, 42.37793951210683]}, "type": "Feature", "id": 4, "properties": {"SITE_NAME": "Mennonite Congregation of Boston", "GlobalID": "{A55A8DB4-4E8D-4DE2-92A3-1C17DAA7E355}", "ADDRESS": "1555 Massachusetts Ave"}},{"geometry": {"type": "Point", "coordinates": [-71.10186782829818, 42.37356965600614]}, "type": "Feature", "id": 5, "properties": {"SITE_NAME": "First Presbyterian Church", "GlobalID": "{7D0817A6-0843-4D6D-BE24-78A1B287F984}", "ADDRESS": "1418 Cambridge Street"}},{"geometry": {"type": "Point", "coordinates": [-71.09846372196331, 42.37209045673953]}, "type": "Feature", "id": 6, "properties": {"SITE_NAME": "Adventist Congregational Church", "GlobalID": "{0F8F9CF8-113A-4B57-A042-F8CAAAE790F4}", "ADDRESS": "171 Hampshire Street"}},{"geometry": {"type": "Point", "coordinates": [-71.1002837113338, 42.3693760977961]}, "type": "Feature", "id": 7, "properties": {"SITE_NAME": "Faith Lutheran Church", "GlobalID": "{F82FBA3D-B4AE-4DB3-9DEB-4C1C6646CA00}", "ADDRESS": "311 Broadway"}},{"geometry": {"type": "Point", "coordinates": [-71.11091037876804, 42.35881857635897]}, "type": "Feature", "id": 8, "properties": {"SITE_NAME": "Cambridgeport Baptist Church", "GlobalID": "{B80420BD-C515-48ED-85EA-31BC88CAE500}", "ADDRESS": "459 Putnam Ave"}},{"geometry": {"type": "Point", "coordinates": [-71.09806927621445, 42.36382522991093]}, "type": "Feature", "id": 9, "properties": {"SITE_NAME": "Rush A.M.E. Zion Church", "GlobalID": "{12BF5A92-6860-4D5A-B2D1-B280DF8F2D90}", "ADDRESS": "82 School Street"}},{"geometry": {"type": "Point", "coordinates": [-71.12086792816315, 42.390757153047986]}, "type": "Feature", "id": 10, "properties": {"SITE_NAME": "St. James Episcopal Church", "GlobalID": "{F484A1AB-C3C4-4E08-9B3B-B3F86BE91B66}", "ADDRESS": "1991 Massachusetts Ave"}},{"geometry": {"type": "Point", "coordinates": [-71.09748920554821, 42.36675393462582]}, "type": "Feature", "id": 11, "properties": {"SITE_NAME": "Comm. Outreach Tabernacle", "GlobalID": "{B224E269-25AC-47F2-BD00-68470E6F35B0}", "ADDRESS": "190 Harvard Street"}},{"geometry": {"type": "Point", "coordinates": [-71.11969537315454, 42.37793951210683]}, "type": "Feature", "id": 12, "properties": {"SITE_NAME": "Harvard-Epworth United Methodist", "GlobalID": "{4EC3D1E1-2752-4124-A790-205FBBCCE492}", "ADDRESS": "1555 Massachusetts Ave"}},{"geometry": {"type": "Point", "coordinates": [-71.09776048636554, 42.370936886953345]}, "type": "Feature", "id": 13, "properties": {"SITE_NAME": "Mass. Avenue Baptist Church", "GlobalID": "{1CDD5D19-7631-4E53-B3E1-3CBF0CD0985B}", "ADDRESS": "146 Hampshire Street"}},{"geometry": {"type": "Point", "coordinates": [-71.11940739033928, 42.37457021277786]}, "type": "Feature", "id": 14, "properties": {"SITE_NAME": "First Parish Unitarian Universalist", "GlobalID": "{A94148B8-2B71-4AB4-8705-5BBAFC531E7D}", "ADDRESS": "3 Church Street"}},{"geometry": {"type": "Point", "coordinates": [-71.09751202317238, 42.36676191742328]}, "type": "Feature", "id": 15, "properties": {"SITE_NAME": "The Church of God of Prophecy", "GlobalID": "{3261369C-0674-4A99-878A-12C3A6F980E4}", "ADDRESS": "190 Harvard Street"}},{"geometry": {"type": "Point", "coordinates": [-71.105085325053, 42.36421230150929]}, "type": "Feature", "id": 16, "properties": {"SITE_NAME": "Greek Orthodox Church", "GlobalID": "{B9A9CACB-14BA-4C5B-ABD7-BF2828738B80}", "ADDRESS": "14 Magazine Street"}},{"geometry": {"type": "Point", "coordinates": [-71.0935076974885, 42.358260468455086]}, "type": "Feature", "id": 17, "properties": {"SITE_NAME": "MIT Catholic Community", "GlobalID": "{04CB8B8A-36CB-417B-A667-2B499194BF7E}", "ADDRESS": "40 Massachusetts Ave"}},{"geometry": {"type": "Point", "coordinates": [-71.1044251245045, 42.363816421850146]}, "type": "Feature", "id": 18, "properties": {"SITE_NAME": "Cambridge Church of the Nazarene", "GlobalID": "{97D3FA67-B9BA-4247-8477-82201D8DD89B}", "ADDRESS": "234 Franklin Street"}},{"geometry": {"type": "Point", "coordinates": [-71.0995348567343, 42.36445687080475]}, "type": "Feature", "id": 19, "properties": {"SITE_NAME": "St. Paul AME Church", "GlobalID": "{DFF3E2D7-4791-498E-A818-685A0D609B34}", "ADDRESS": "37 Bishop Allen Drive"}},{"geometry": {"type": "Point", "coordinates": [-71.1273804699072, 42.37587988161699]}, "type": "Feature", "id": 20, "properties": {"SITE_NAME": "Friends Meeting At Cambridge", "GlobalID": "{7290B077-E417-4BCE-B13F-1E10C0A51835}", "ADDRESS": "5 Longfellow Pk"}},{"geometry": {"type": "Point", "coordinates": [-71.09897474011726, 42.36319337231091]}, "type": "Feature", "id": 21, "properties": {"SITE_NAME": "Union Baptist Church", "GlobalID": "{E4F9B049-3347-423A-9EB0-9BFA2765B48D}", "ADDRESS": "874 Main Street"}},{"geometry": {"type": "Point", "coordinates": [-71.08827159640323, 42.3716606524253]}, "type": "Feature", "id": 22, "properties": {"SITE_NAME": "St. Anthony's Church", "GlobalID": "{872D4B48-16D3-44B7-8510-B33D43C7D5BA}", "ADDRESS": "400 Cardinal Medeiros Ave"}},{"geometry": {"type": "Point", "coordinates": [-71.08530142617563, 42.37048160885243]}, "type": "Feature", "id": 23, "properties": {"SITE_NAME": "Sacred Heart Church", "GlobalID": "{1CD38E3F-83D7-463D-AAD5-6AD8B769D453}", "ADDRESS": "49 Sixth Street"}},{"geometry": {"type": "Point", "coordinates": [-71.10498767121263, 42.3668142317649]}, "type": "Feature", "id": 24, "properties": {"SITE_NAME": "St. Mary's Orthodox Church", "GlobalID": "{2B0EAD06-D3EA-43CC-9825-1F37E552D7C8}", "ADDRESS": "8 Inman Street"}},{"geometry": {"type": "Point", "coordinates": [-71.12052959971813, 42.37530998985552]}, "type": "Feature", "id": 25, "properties": {"SITE_NAME": "Christ Church Episcopal", "GlobalID": "{3F17A37A-C563-46F0-AEDC-E2F65931AAC7}", "ADDRESS": "Zero Garden Street"}},{"geometry": {"type": "Point", "coordinates": [-71.09722616161152, 42.36863989772419]}, "type": "Feature", "id": 26, "properties": {"SITE_NAME": "First Holiness Church", "GlobalID": "{7197C497-FEDA-4C81-9066-7EE341905222}", "ADDRESS": "211 Columbia Street"}},{"geometry": {"type": "Point", "coordinates": [-71.10314479075504, 42.37166386266788]}, "type": "Feature", "id": 27, "properties": {"SITE_NAME": "First Reformed Presbyterian Church", "GlobalID": "{E2EEC463-6E2C-4367-91AD-3EADCFABDCE3}", "ADDRESS": "53 Antrim Street"}},{"geometry": {"type": "Point", "coordinates": [-71.10731587209052, 42.36219096531525]}, "type": "Feature", "id": 28, "properties": {"SITE_NAME": "Grace United Methodist Church", "GlobalID": "{18F776DD-FFFB-447D-8A65-AD0FC57293D1}", "ADDRESS": "56 Magazine Street"}},{"geometry": {"type": "Point", "coordinates": [-71.10018883471366, 42.36749020192801]}, "type": "Feature", "id": 29, "properties": {"SITE_NAME": "St. Mary of the Annunciation", "GlobalID": "{950F9E13-F8C5-47C9-A4EF-30E24E78C41B}", "ADDRESS": "134 Norfold Street"}},{"geometry": {"type": "Point", "coordinates": [-71.10748747499984, 42.35850720879822]}, "type": "Feature", "id": 30, "properties": {"SITE_NAME": "St. Augustine African Orthodox Church", "GlobalID": "{867BD216-8B24-4A27-BDC6-F2B45FD64CC1}", "ADDRESS": "137 Allston Street"}},{"geometry": {"type": "Point", "coordinates": [-71.10507995195259, 42.364823993425944]}, "type": "Feature", "id": 31, "properties": {"SITE_NAME": "First Baptist Church", "GlobalID": "{6B32CE63-1979-4EA9-AA8A-C4ED75AD32E6}", "ADDRESS": "5 Magazine Street"}},{"geometry": {"type": "Point", "coordinates": [-71.1241442698939, 42.37667772932719]}, "type": "Feature", "id": 32, "properties": {"SITE_NAME": "Berkland Baptist Church", "GlobalID": "{A6F065FB-10F8-4772-8476-DE918269EE67}", "ADDRESS": "99 Brattle Street"}},{"geometry": {"type": "Point", "coordinates": [-71.11956031793413, 42.39093378055157]}, "type": "Feature", "id": 33, "properties": {"SITE_NAME": "Hope Fellowship Church", "GlobalID": "{EF24863F-E3D0-4905-8888-BAEB9DCF65E7}", "ADDRESS": "16 Beech Street"}},{"geometry": {"type": "Point", "coordinates": [-71.13073457266127, 42.37825740140424]}, "type": "Feature", "id": 34, "properties": {"SITE_NAME": "Holy Trinity Armenian Apostolic Church", "GlobalID": "{39DBEA97-F1C2-4677-BC82-ABF6DEDEDAD4}", "ADDRESS": "145 Brattle Street"}},{"geometry": {"type": "Point", "coordinates": [-71.11089131513486, 42.358826058089136]}, "type": "Feature", "id": 35, "properties": {"SITE_NAME": "Korean Church of the Shepherd", "GlobalID": "{2BADA41D-F4C0-470D-B504-B66DB9CE9856}", "ADDRESS": "459 Putnam Ave"}},{"geometry": {"type": "Point", "coordinates": [-71.1126597019457, 42.364776859094256]}, "type": "Feature", "id": 36, "properties": {"SITE_NAME": "Western Avenue Baptist Church", "GlobalID": "{1FB15C19-39D6-4F83-8DF1-995BE081519F}", "ADDRESS": "299 Western Ave"}},{"geometry": {"type": "Point", "coordinates": [-71.13183346643824, 42.37992086460683]}, "type": "Feature", "id": 37, "properties": {"SITE_NAME": "Cambridge Buddhist Association", "GlobalID": "{1298D1C9-9BBF-4C3A-B37F-574A20E54235}", "ADDRESS": "75 Sparks Street"}},{"geometry": {"type": "Point", "coordinates": [-71.1273804699072, 42.37587988161699]}, "type": "Feature", "id": 38, "properties": {"SITE_NAME": "Cambridge Dzogchen Center", "GlobalID": "{D9AE310D-CF28-4450-84AE-A702CA001D5D}", "ADDRESS": "5 Longfellow Pk"}},{"geometry": {"type": "Point", "coordinates": [-71.12612033250842, 42.37611340202184]}, "type": "Feature", "id": 39, "properties": {"SITE_NAME": "Church of Jesus Christ of Latter Day Saints", "GlobalID": "{A007D1D2-35CA-49D1-9620-7F46DAA72933}", "ADDRESS": "2 Longfellow Park"}},{"geometry": {"type": "Point", "coordinates": [-71.10055465408279, 42.368129773102616]}, "type": "Feature", "id": 40, "properties": {"SITE_NAME": "St. Bartholomew's Episcopal Church", "GlobalID": "{55D19B58-3BA0-44EF-B873-99106BD5A60E}", "ADDRESS": "239 Harvard Street"}},{"geometry": {"type": "Point", "coordinates": [-71.12074707697036, 42.378152877902124]}, "type": "Feature", "id": 41, "properties": {"SITE_NAME": "First Church of Christ Scientist", "GlobalID": "{41E1187D-36A5-47FD-86E4-907B57060F9E}", "ADDRESS": "41 Follen Street"}},{"geometry": {"type": "Point", "coordinates": [-71.12741178575912, 42.39425341326828]}, "type": "Feature", "id": 42, "properties": {"SITE_NAME": "St. John the Evangelist Catholic Church", "GlobalID": "{0CE3F517-4046-4F3B-B940-85468EEA23C1}", "ADDRESS": "2254 Massachusetts Ave"}},{"geometry": {"type": "Point", "coordinates": [-71.11352824467237, 42.37647513904051]}, "type": "Feature", "id": 43, "properties": {"SITE_NAME": "Anglican Church of the Incarnation", "GlobalID": "{9D5732A0-3533-4F1D-A37A-408303AEAB60}", "ADDRESS": "50 Quincy Street"}},{"geometry": {"type": "Point", "coordinates": [-71.10706195408241, 42.36706597128804]}, "type": "Feature", "id": 44, "properties": {"SITE_NAME": "St. Peter's Episcopal Church", "GlobalID": "{87183F8B-5582-4FEA-B510-3773F83338C9}", "ADDRESS": "838 Massachusetts Ave"}},{"geometry": {"type": "Point", "coordinates": [-71.12001201528744, 42.37173997183572]}, "type": "Feature", "id": 45, "properties": {"SITE_NAME": "University Lutheran Church", "GlobalID": "{4E195BA9-84A8-46D0-8D61-F739FD89FB40}", "ADDRESS": "66 Winthrop Street"}},{"geometry": {"type": "Point", "coordinates": [-71.10444607763249, 42.363826674452355]}, "type": "Feature", "id": 46, "properties": {"SITE_NAME": "Cambridge Community Fellowship Church", "GlobalID": "{5929F95A-1159-487A-BB41-1DFDE4A1EA5A}", "ADDRESS": "234 Franklin Street"}},{"geometry": {"type": "Point", "coordinates": [-71.11604281537348, 42.37489754068427]}, "type": "Feature", "id": 47, "properties": {"SITE_NAME": "The Memorial Church of Harvard University", "GlobalID": "{68511DEC-5DE2-41DE-BD99-79BDB50B06DF}", "ADDRESS": "23 Harvard Yard"}},{"geometry": {"type": "Point", "coordinates": [-71.11106149765018, 42.36525541154261]}, "type": "Feature", "id": 48, "properties": {"SITE_NAME": "Abundant Life Church", "GlobalID": "{A57BE0B7-5DDC-4102-9124-B75F3EC22295}", "ADDRESS": "47 Howard Street"}},{"geometry": {"type": "Point", "coordinates": [-71.10719059436416, 42.363905670352985]}, "type": "Feature", "id": 49, "properties": {"SITE_NAME": "Antioch Temple Church", "GlobalID": "{27426F7A-EBB9-4915-BE1F-F99F95BF44F7}", "ADDRESS": "44 William St"}},{"geometry": {"type": "Point", "coordinates": [-71.09695993510051, 42.36349076832126]}, "type": "Feature", "id": 50, "properties": {"SITE_NAME": "Christian Mission Holiness Church", "GlobalID": "{1CDE90F6-30F1-406E-9732-5266BEEFCA08}", "ADDRESS": "789 Main Street"}},{"geometry": {"type": "Point", "coordinates": [-71.1027592236602, 42.36785065165873]}, "type": "Feature", "id": 51, "properties": {"SITE_NAME": "Christ the King Presbyterian Church", "GlobalID": "{F3EE1ED2-BD3F-4322-BB58-B285CFEC8F3E}", "ADDRESS": "99 Prospect Street"}},{"geometry": {"type": "Point", "coordinates": [-71.12464527173195, 42.376358802858626]}, "type": "Feature", "id": 52, "properties": {"SITE_NAME": "Grace St. Foursquare Church", "GlobalID": "{B9165750-6444-485F-9C38-B5AEDF20DDA9}", "ADDRESS": "99 Brattle St"}},{"geometry": {"type": "Point", "coordinates": [-71.11956031793413, 42.39093378055157]}, "type": "Feature", "id": 53, "properties": {"SITE_NAME": "Haitian Baptist Church", "GlobalID": "{E99BFE46-A1CC-449E-8ACF-DEB0FFB08037}", "ADDRESS": "16 Beech Street"}},{"geometry": {"type": "Point", "coordinates": [-71.10004426665017, 42.370262837406145]}, "type": "Feature", "id": 54, "properties": {"SITE_NAME": "Islamic Society of Boston", "GlobalID": "{14D97B17-8B9D-42B0-A844-97375EB81AF1}", "ADDRESS": "204 Prospect Street"}},{"geometry": {"type": "Point", "coordinates": [-71.13392762593539, 42.403473741216715]}, "type": "Feature", "id": 55, "properties": {"SITE_NAME": "St. Sava Serbian Orthodox Church", "GlobalID": "{13A4887F-8431-49EC-9CA0-C5AF0DB8B620}", "ADDRESS": "45 Alewife Brook Parkway"}},{"geometry": {"type": "Point", "coordinates": [-71.12464523456035, 42.376358830178056]}, "type": "Feature", "id": 56, "properties": {"SITE_NAME": "St. John's Memorial Chapel", "GlobalID": "{4A5BC711-2F04-49B9-8073-3F3B3E21DE27}", "ADDRESS": "99 Brattle Street"}},{"geometry": {"type": "Point", "coordinates": [-71.10683089051713, 42.363382626954284]}, "type": "Feature", "id": 57, "properties": {"SITE_NAME": "First Korean Church in Cambridge", "GlobalID": "{C882D3B2-DC00-461F-81C0-4F053004B8E9}", "ADDRESS": "35 Magazine Street"}},{"geometry": {"type": "Point", "coordinates": [-71.10281501484019, 42.36787019007801]}, "type": "Feature", "id": 58, "properties": {"SITE_NAME": "Iglesia Presbyteriana", "GlobalID": "{D6C138C0-5468-4A17-A6C8-6546678E93AD}", "ADDRESS": "99 Prospect Street"}},{"geometry": {"type": "Point", "coordinates": [-71.0977799674142, 42.366814470861605]}, "type": "Feature", "id": 59, "properties": {"SITE_NAME": "Faithful & True Witness Apostolic Church", "GlobalID": "{5065CD48-34C3-462F-BEE8-D6D61C31B188}", "ADDRESS": "148 Columbia Street"}},{"geometry": {"type": "Point", "coordinates": [-71.09934279213519, 42.369326476756996]}, "type": "Feature", "id": 60, "properties": {"SITE_NAME": "Temple Beth Shalom", "GlobalID": "{947AB87E-C6F5-494E-948D-177D03CCEEB0}", "ADDRESS": "8 Tremont Street"}},{"geometry": {"type": "Point", "coordinates": [-71.1002837113338, 42.3693760977961]}, "type": "Feature", "id": 61, "properties": {"SITE_NAME": "Calvary Praise & Worship Center", "GlobalID": "{56A8D6D1-C2C6-4A06-811B-D4453E0B9222}", "ADDRESS": "311 Broadway"}},{"geometry": {"type": "Point", "coordinates": [-71.11120255110046, 42.35854339996193]}, "type": "Feature", "id": 62, "properties": {"SITE_NAME": "Congregation Eitz Chayim", "GlobalID": "{8293B8FD-C811-4EC4-9F66-7AFC4CAEE135}", "ADDRESS": "136 Magazine Street"}},{"geometry": {"type": "Point", "coordinates": [-71.12468020626942, 42.3723187383635]}, "type": "Feature", "id": 63, "properties": {"SITE_NAME": "Society of St. John the Evangelist", "GlobalID": "{1CD88FCC-F4F0-4239-8760-679E2E4FC0EF}", "ADDRESS": "980 Memorial Drive"}},{"geometry": {"type": "Point", "coordinates": [-71.08123762168032, 42.371394714505904]}, "type": "Feature", "id": 64, "properties": {"SITE_NAME": "St. Francis of Assisi", "GlobalID": "{0ACD3089-2424-4837-84C3-019BE50B6C15}", "ADDRESS": "42 Sciarappa Street"}},{"geometry": {"type": "Point", "coordinates": [-71.12999784707453, 42.38150765929249]}, "type": "Feature", "id": 65, "properties": {"SITE_NAME": "St. Peter's Church", "GlobalID": "{3002A741-570B-4627-BE4B-6D8B40578FAB}", "ADDRESS": "100 Concord Ave"}},{"geometry": {"type": "Point", "coordinates": [-71.11418493824746, 42.37174999167648]}, "type": "Feature", "id": 66, "properties": {"SITE_NAME": "Old Cambridge Baptist Church", "GlobalID": "{50FFE093-EB89-46F4-8F30-BDE3B8F17407}", "ADDRESS": "1151 Massachusetts Ave"}},{"geometry": {"type": "Point", "coordinates": [-71.1313634647366, 42.392890983163284]}, "type": "Feature", "id": 67, "properties": {"SITE_NAME": "Vineyard Christian Fellowship of Greater Boston", "GlobalID": "{516BAFFE-A814-40B8-965A-D5155D6494F1}", "ADDRESS": "170 Rindge Ave"}},{"geometry": {"type": "Point", "coordinates": [-71.09899883163338, 42.365368343109544]}, "type": "Feature", "id": 68, "properties": {"SITE_NAME": "Pentecostal Tabernacle Church", "GlobalID": "{F665036C-6403-44A6-9A67-C78CEC3919B1}", "ADDRESS": "77 Columbia Street"}},{"geometry": {"type": "Point", "coordinates": [-71.10068625749074, 42.37257632125736]}, "type": "Feature", "id": 69, "properties": {"SITE_NAME": "Portuguese Evangelical Baptist Church", "GlobalID": "{883C3B68-08D6-4F60-B902-2C6170B6F5C3}", "ADDRESS": "114 Inman Street"}},{"geometry": {"type": "Point", "coordinates": [-71.09346094568109, 42.37126969331179]}, "type": "Feature", "id": 70, "properties": {"SITE_NAME": "Immaculate Conception Church", "GlobalID": "{8F4D335F-469B-4AD2-BF05-974DD6ECEBDB}", "ADDRESS": "432 Windsor Street"}},{"geometry": {"type": "Point", "coordinates": [-71.12045459374363, 42.39096554645344]}, "type": "Feature", "id": 71, "properties": {"SITE_NAME": "Cambridge Congregation of Jehovah's Witnesses", "GlobalID": "{0009865B-83D4-49F0-96F5-C9B32822B813}", "ADDRESS": "9 Beech St"}},{"geometry": {"type": "Point", "coordinates": [-71.09833640375903, 42.363637397717326]}, "type": "Feature", "id": 72, "properties": {"SITE_NAME": "Zion Pentecostal Tabernacle Church", "GlobalID": "{EC456685-53D0-4405-AF81-F1C72D6FB4AD}", "ADDRESS": "7 Bishop Allen Dr"}},{"geometry": {"type": "Point", "coordinates": [-71.12102045175108, 42.39352852551547]}, "type": "Feature", "id": 73, "properties": {"SITE_NAME": "Church of the Nazarene of West Somerville", "GlobalID": "{0D409067-A57B-4B49-8884-1777DD1FF2FC}", "ADDRESS": "52 Russell St"}},{"geometry": {"type": "Point", "coordinates": [-71.10101025017863, 42.365954339065055]}, "type": "Feature", "id": 74, "properties": {"SITE_NAME": "The Gospel Room", "GlobalID": "{1F4D50E0-2C95-468C-B026-8A3F9857DA9B}", "ADDRESS": "69 Norfolk St"}},{"geometry": {"type": "Point", "coordinates": [-71.11274303037132, 42.35997217254398]}, "type": "Feature", "id": 75, "properties": {"SITE_NAME": "Gospel Hall Church", "GlobalID": "{45ABAE60-4F2E-4CF6-B41E-12703D8C1F47}", "ADDRESS": "395 Putnam St"}},{"geometry": {"type": "Point", "coordinates": [-71.10732324106735, 42.362178120733226]}, "type": "Feature", "id": 76, "properties": {"SITE_NAME": "Heavenly Doors of the Apostolic Faith Church", "GlobalID": "{79F7EC33-2AF1-48F3-9CEA-B26B04E3526B}", "ADDRESS": "56 Magazine St"}},{"geometry": {"type": "Point", "coordinates": [-71.10515580358106, 42.364777220310884]}, "type": "Feature", "id": 77, "properties": {"SITE_NAME": "Bethel Assembly of God", "GlobalID": "{46B48303-3F2B-41DF-AB52-C999973A21E9}", "ADDRESS": "5 Magazine St"}},{"geometry": {"type": "Point", "coordinates": [-71.10601911424214, 42.364355479470895]}, "type": "Feature", "id": 78, "properties": {"SITE_NAME": "Cambridge Zen Center", "GlobalID": "{8CFF2617-0665-4821-BE78-AFFF1C5DEA93}", "ADDRESS": "199 Auburn St"}},{"geometry": {"type": "Point", "coordinates": [-71.07913217927172, 42.366232096529465]}, "type": "Feature", "id": 79, "properties": {"SITE_NAME": "Church of Jesus Christ of Latter Day Saints", "GlobalID": "{ED025002-BBD9-4D26-9452-1882E273B6A2}", "ADDRESS": "65 Binney St"}},{"geometry": {"type": "Point", "coordinates": [-71.10591416100937, 42.36555970664747]}, "type": "Feature", "id": 80, "properties": {"EditDate": "2015", "SITE_NAME": "Church in Cambridge", "GlobalID": "{6AFA6FD6-A413-49E0-BF86-BF7CDB62F936}", "ADDRESS": "380 Green Street"}},{"geometry": {"type": "Point", "coordinates": [-71.10164336351701, 42.36575171282643]}, "type": "Feature", "id": 81, "properties": {"EditDate": "2015", "SITE_NAME": "St. Paul AME Church", "GlobalID": "{513E0095-9519-4699-A45F-C39485F11B7B}", "ADDRESS": "85 Bishop Allen Drive"}}]}