{"type":"FeatureCollection","features":[{"geometry": {"type": "Point", "coordinates": [-71.12297623036204, 42.37663667015214]}, "type": "Feature", "id": 1, "properties": {"SITE_NAME": "First Church Congregational", "GlobalID": "{33556888-1239-4D8E-AA1A-B32DD5613700}", "ADDRESS": "11 Garden Street"}},{"geometry": {"type": "Point", "coordinates": [-71.11573347596291, 42.371215964494056]}, "type": "Feature", "id": 3, "properties": {"SITE_NAME": "St. Paul's Catholic Church", "GlobalID": "{B3798226-321E-4442-A0A8-14A7F3A76FFC}", "ADDRESS": "16 Arrow Street"}},{"geometry": {"type": "Point", "coordinates": [-71.11956031793413, 42.39093378055157]}, "type": "Feature", "id": 4, "properties": {"SITE_NAME": "First Brazilian Baptist Church", "GlobalID": "{7E23D3AD-AF14-4A34-A9EB-CA1C6925D1C8}", "ADDRESS": "16 Beech Street"}},{"geometry": {"type": "Point", "coordinates": [-71.11969537315454, 42.37793951210683]}, "type": "Feature", "id": 5, "properties": {"SITE_NAME": "Mennonite Congregation of Boston", "GlobalID": "{CFAA5E8C-8E87-406A-8828-BCFB87240A25}", "ADDRESS": "1555 Massachusetts Ave"}},{"geometry": {"type": "Point", "coordinates": [-71.10186782829818, 42.37356965600614]}, "type": "Feature", "id": 7, "properties": {"SITE_NAME": "First Presbyterian Church", "GlobalID": "{C63CCDF5-22D8-43DA-9684-B1A12824CE0E}", "ADDRESS": "1418 Cambridge Street"}},{"geometry": {"type": "Point", "coordinates": [-71.09846372196331, 42.37209045673953]}, "type": "Feature", "id": 9, "properties": {"SITE_NAME": "Adventist Congregational Church", "GlobalID": "{D2992819-35FB-476C-A61A-DE41B3CC9736}", "ADDRESS": "171 Hampshire Street"}},{"geometry": {"type": "Point", "coordinates": [-71.1002837113338, 42.3693760977961]}, "type": "Feature", "id": 11, "properties": {"SITE_NAME": "Faith Lutheran Church", "GlobalID": "{BB4667EC-329F-4468-8217-6DE6A7866CAE}", "ADDRESS": "311 Broadway"}},{"geometry": {"type": "Point", "coordinates": [-71.11091037876804, 42.35881857635897]}, "type": "Feature", "id": 12, "properties": {"SITE_NAME": "Cambridgeport Baptist Church", "GlobalID": "{59944472-E3B3-42DF-B004-D1FFC507BC25}", "ADDRESS": "459 Putnam Ave"}},{"geometry": {"type": "Point", "coordinates": [-71.09806927621445, 42.36382522991093]}, "type": "Feature", "id": 13, "properties": {"SITE_NAME": "Rush A.M.E. Zion Church", "GlobalID": "{40E08367-6E8C-4445-A7D5-11638DF5F3A9}", "ADDRESS": "82 School Street"}},{"geometry": {"type": "Point", "coordinates": [-71.12086792816315, 42.390757153047986]}, "type": "Feature", "id": 14, "properties": {"SITE_NAME": "St. James Episcopal Church", "GlobalID": "{65AE1513-678A-4DAC-B174-F89C9085CD4D}", "ADDRESS": "1991 Massachusetts Ave"}},{"geometry": {"type": "Point", "coordinates": [-71.09748920554821, 42.36675393462582]}, "type": "Feature", "id": 15, "properties": {"SITE_NAME": "Comm. Outreach Tabernacle", "GlobalID": "{6AC0531F-49F4-4876-B53B-6394CACD8F1B}", "ADDRESS": "190 Harvard Street"}},{"geometry": {"type": "Point", "coordinates": [-71.11969537315454, 42.37793951210683]}, "type": "Feature", "id": 16, "properties": {"SITE_NAME": "Harvard-Epworth United Methodist", "GlobalID": "{A21F55F8-1C6B-4938-967E-AED1D26A328D}", "ADDRESS": "1555 Massachusetts Ave"}},{"geometry": {"type": "Point", "coordinates": [-71.09776048636554, 42.370936886953345]}, "type": "Feature", "id": 17, "properties": {"SITE_NAME": "Mass. Avenue Baptist Church", "GlobalID": "{AA179A46-3300-4025-A4D7-466DB663B847}", "ADDRESS": "146 Hampshire Street"}},{"geometry": {"type": "Point", "coordinates": [-71.11940739033928, 42.37457021277786]}, "type": "Feature", "id": 18, "properties": {"SITE_NAME": "First Parish Unitarian Universalist", "GlobalID": "{7F582E01-63FE-435B-9547-69F6FFD12727}", "ADDRESS": "3 Church Street"}},{"geometry": {"type": "Point", "coordinates": [-71.09751202317238, 42.36676191742328]}, "type": "Feature", "id": 20, "properties": {"SITE_NAME": "The Church of God of Prophecy", "GlobalID": "{33F54C94-125B-43F6-9EFA-3EA93CBF91F4}", "ADDRESS": "190 Harvard Street"}},{"geometry": {"type": "Point", "coordinates": [-71.105085325053, 42.36421230150929]}, "type": "Feature", "id": 21, "properties": {"SITE_NAME": "Greek Orthodox Church", "GlobalID": "{53F00815-3950-4F80-92C9-1080A4CEBBF7}", "ADDRESS": "14 Magazine Street"}},{"geometry": {"type": "Point", "coordinates": [-71.0935076974885, 42.358260468455086]}, "type": "Feature", "id": 22, "properties": {"SITE_NAME": "MIT Catholic Community", "GlobalID": "{95E4AC9A-92EE-4C14-8DDC-D424CC816713}", "ADDRESS": "40 Massachusetts Ave"}},{"geometry": {"type": "Point", "coordinates": [-71.1044251245045, 42.363816421850146]}, "type": "Feature", "id": 23, "properties": {"SITE_NAME": "Cambridge Church of the Nazarene", "GlobalID": "{7ED71B78-A42D-4B53-AA4A-7304E78D5C91}", "ADDRESS": "234 Franklin Street"}},{"geometry": {"type": "Point", "coordinates": [-71.0995348567343, 42.36445687080475]}, "type": "Feature", "id": 24, "properties": {"SITE_NAME": "St. Paul AME Church", "GlobalID": "{0F6E1779-D379-4908-A73F-CB6B338E7504}", "ADDRESS": "37 Bishop Allen Drive"}},{"geometry": {"type": "Point", "coordinates": [-71.1273804699072, 42.37587988161699]}, "type": "Feature", "id": 25, "properties": {"SITE_NAME": "Friends Meeting At Cambridge", "GlobalID": "{F992A440-E4D9-4671-BCC3-0DD4F9FB592D}", "ADDRESS": "5 Longfellow Pk"}},{"geometry": {"type": "Point", "coordinates": [-71.09897474011726, 42.36319337231091]}, "type": "Feature", "id": 28, "properties": {"SITE_NAME": "Union Baptist Church", "GlobalID": "{FCC7F336-3BC5-4863-A9C7-3A7E25B3BFEB}", "ADDRESS": "874 Main Street"}},{"geometry": {"type": "Point", "coordinates": [-71.08827159640323, 42.3716606524253]}, "type": "Feature", "id": 29, "properties": {"SITE_NAME": "St. Anthony's Church", "GlobalID": "{72921117-56AA-469E-8FAB-D023ABA26A09}", "ADDRESS": "400 Cardinal Medeiros Ave"}},{"geometry": {"type": "Point", "coordinates": [-71.08530142617563, 42.37048160885243]}, "type": "Feature", "id": 30, "properties": {"SITE_NAME": "Sacred Heart Church", "GlobalID": "{175C125A-4EE6-4AA0-9176-CA7189D82D84}", "ADDRESS": "49 Sixth Street"}},{"geometry": {"type": "Point", "coordinates": [-71.10498767121263, 42.3668142317649]}, "type": "Feature", "id": 31, "properties": {"SITE_NAME": "St. Mary's Orthodox Church", "GlobalID": "{DDA5C703-0A80-4AB1-8A85-7B11DA3F92A7}", "ADDRESS": "8 Inman Street"}},{"geometry": {"type": "Point", "coordinates": [-71.12052959971813, 42.37530998985552]}, "type": "Feature", "id": 32, "properties": {"SITE_NAME": "Christ Church Episcopal", "GlobalID": "{E782E651-9E32-46D5-A64A-3093A4121123}", "ADDRESS": "Zero Garden Street"}},{"geometry": {"type": "Point", "coordinates": [-71.09722616161152, 42.36863989772419]}, "type": "Feature", "id": 33, "properties": {"SITE_NAME": "First Holiness Church", "GlobalID": "{C86B7485-DA3C-42E3-89DC-2031337E8EF2}", "ADDRESS": "211 Columbia Street"}},{"geometry": {"type": "Point", "coordinates": [-71.10314479075504, 42.37166386266788]}, "type": "Feature", "id": 34, "properties": {"SITE_NAME": "First Reformed Presbyterian Church", "GlobalID": "{9F721C9A-A392-4410-9367-73968EC2EC01}", "ADDRESS": "53 Antrim Street"}},{"geometry": {"type": "Point", "coordinates": [-71.10731587209052, 42.36219096531525]}, "type": "Feature", "id": 36, "properties": {"SITE_NAME": "Grace United Methodist Church", "GlobalID": "{020E42BA-0423-4810-A78B-32E017E9EE24}", "ADDRESS": "56 Magazine Street"}},{"geometry": {"type": "Point", "coordinates": [-71.10018883471366, 42.36749020192801]}, "type": "Feature", "id": 37, "properties": {"SITE_NAME": "St. Mary of the Annunciation", "GlobalID": "{07422091-25FF-4D05-A5DB-339DE1201A38}", "ADDRESS": "134 Norfold Street"}},{"geometry": {"type": "Point", "coordinates": [-71.10748747499984, 42.35850720879822]}, "type": "Feature", "id": 38, "properties": {"SITE_NAME": "St. Augustine African Orthodox Church", "GlobalID": "{298D193E-B6C9-4793-B1A7-9E1841366439}", "ADDRESS": "137 Allston Street"}},{"geometry": {"type": "Point", "coordinates": [-71.10507995195259, 42.364823993425944]}, "type": "Feature", "id": 39, "properties": {"SITE_NAME": "First Baptist Church", "GlobalID": "{2725DB8A-04F7-456B-B52C-81F56322D9E0}", "ADDRESS": "5 Magazine Street"}},{"geometry": {"type": "Point", "coordinates": [-71.1241442698939, 42.37667772932719]}, "type": "Feature", "id": 40, "properties": {"SITE_NAME": "Berkland Baptist Church", "GlobalID": "{EA8AF824-12CA-44E2-B8A4-A5072F17D251}", "ADDRESS": "99 Brattle Street"}},{"geometry": {"type": "Point", "coordinates": [-71.11956031793413, 42.39093378055157]}, "type": "Feature", "id": 41, "properties": {"SITE_NAME": "Hope Fellowship Church", "GlobalID": "{3EF3D921-C5F0-4E6D-B071-0DD9DC2449B2}", "ADDRESS": "16 Beech Street"}},{"geometry": {"type": "Point", "coordinates": [-71.13073457266127, 42.37825740140424]}, "type": "Feature", "id": 42, "properties": {"SITE_NAME": "Holy Trinity Armenian Apostolic Church", "GlobalID": "{1B42E5BA-7134-41E0-A802-CC4B57E7AF5D}", "ADDRESS": "145 Brattle Street"}},{"geometry": {"type": "Point", "coordinates": [-71.11089131513486, 42.358826058089136]}, "type": "Feature", "id": 43, "properties": {"SITE_NAME": "Korean Church of the Shepherd", "GlobalID": "{F7AEE922-6F35-441B-96C1-DE85142C1D7E}", "ADDRESS": "459 Putnam Ave"}},{"geometry": {"type": "Point", "coordinates": [-71.1126597019457, 42.364776859094256]}, "type": "Feature", "id": 44, "properties": {"SITE_NAME": "Western Avenue Baptist Church", "GlobalID": "{B4018883-64B1-4C35-B2AD-AE8D5BA6DA15}", "ADDRESS": "299 Western Ave"}},{"geometry": {"type": "Point", "coordinates": [-71.13183346643824, 42.37992086460683]}, "type": "Feature", "id": 45, "properties": {"SITE_NAME": "Cambridge Buddhist Association", "GlobalID": "{880DAF65-A84C-4218-8B01-C3D764B3C32C}", "ADDRESS": "75 Sparks Street"}},{"geometry": {"type": "Point", "coordinates": [-71.1273804699072, 42.37587988161699]}, "type": "Feature", "id": 46, "properties": {"SITE_NAME": "Cambridge Dzogchen Center", "GlobalID": "{46022716-7532-4C9C-9AA4-636764F7FFDE}", "ADDRESS": "5 Longfellow Pk"}},{"geometry": {"type": "Point", "coordinates": [-71.12612033250842, 42.37611340202184]}, "type": "Feature", "id": 47, "properties": {"SITE_NAME": "Church of Jesus Christ of Latter Day Saints", "GlobalID": "{D45FCFCB-9BDA-4965-BA4F-1824512D87C3}", "ADDRESS": "2 Longfellow Park"}},{"geometry": {"type": "Point", "coordinates": [-71.10055465408279, 42.368129773102616]}, "type": "Feature", "id": 48, "properties": {"SITE_NAME": "St. Bartholomew's Episcopal Church", "GlobalID": "{7CD048DE-EB2F-43FA-A11C-E6989D88D87C}", "ADDRESS": "239 Harvard Street"}},{"geometry": {"type": "Point", "coordinates": [-71.12074707697036, 42.378152877902124]}, "type": "Feature", "id": 50, "properties": {"SITE_NAME": "First Church of Christ Scientist", "GlobalID": "{51111FC8-078C-4012-8EFC-635336904C70}", "ADDRESS": "41 Follen Street"}},{"geometry": {"type": "Point", "coordinates": [-71.12741178575912, 42.39425341326828]}, "type": "Feature", "id": 51, "properties": {"SITE_NAME": "St. John the Evangelist Catholic Church", "GlobalID": "{41275813-EAD7-4BAE-9039-C1F313AF5DC8}", "ADDRESS": "2254 Massachusetts Ave"}},{"geometry": {"type": "Point", "coordinates": [-71.11352824467237, 42.37647513904051]}, "type": "Feature", "id": 52, "properties": {"SITE_NAME": "Anglican Church of the Incarnation", "GlobalID": "{69DA5991-4EB9-4FF5-B1C9-17EC6858258B}", "ADDRESS": "50 Quincy Street"}},{"geometry": {"type": "Point", "coordinates": [-71.10706195408241, 42.36706597128804]}, "type": "Feature", "id": 53, "properties": {"SITE_NAME": "St. Peter's Episcopal Church", "GlobalID": "{DB5FAEFB-BA79-4604-A5E4-9BBA59130B7F}", "ADDRESS": "838 Massachusetts Ave"}},{"geometry": {"type": "Point", "coordinates": [-71.12001201528744, 42.37173997183572]}, "type": "Feature", "id": 54, "properties": {"SITE_NAME": "University Lutheran Church", "GlobalID": "{853A24AF-8085-4B65-BF64-6CEF5CEB5B1D}", "ADDRESS": "66 Winthrop Street"}},{"geometry": {"type": "Point", "coordinates": [-71.10444607763249, 42.363826674452355]}, "type": "Feature", "id": 55, "properties": {"SITE_NAME": "Cambridge Community Fellowship Church", "GlobalID": "{66A7E582-3974-4979-93D8-5E187031385B}", "ADDRESS": "234 Franklin Street"}},{"geometry": {"type": "Point", "coordinates": [-71.11604281537348, 42.37489754068427]}, "type": "Feature", "id": 56, "properties": {"SITE_NAME": "The Memorial Church of Harvard University", "GlobalID": "{AE502CDB-24D4-4E4F-B6D6-79DE976A2D55}", "ADDRESS": "23 Harvard Yard"}},{"geometry": {"type": "Point", "coordinates": [-71.11106149765018, 42.36525541154261]}, "type": "Feature", "id": 57, "properties": {"SITE_NAME": "Abundant Life Church", "GlobalID": "{0BDFEA4E-BE1D-4AA4-A032-C0C7DFB8BD4E}", "ADDRESS": "47 Howard Street"}},{"geometry": {"type": "Point", "coordinates": [-71.10719059436416, 42.363905670352985]}, "type": "Feature", "id": 58, "properties": {"SITE_NAME": "Antioch Temple Church", "GlobalID": "{AFE45BFF-F275-490D-8616-E59C3AE5A253}", "ADDRESS": "44 William St"}},{"geometry": {"type": "Point", "coordinates": [-71.09695993510051, 42.36349076832126]}, "type": "Feature", "id": 59, "properties": {"SITE_NAME": "Christian Mission Holiness Church", "GlobalID": "{939A7E36-643C-4776-BB15-8CD996F0023C}", "ADDRESS": "789 Main Street"}},{"geometry": {"type": "Point", "coordinates": [-71.1027592236602, 42.36785065165873]}, "type": "Feature", "id": 61, "properties": {"SITE_NAME": "Christ the King Presbyterian Church", "GlobalID": "{ACB7F943-87D9-41E8-9934-94E73C8253DD}", "ADDRESS": "99 Prospect Street"}},{"geometry": {"type": "Point", "coordinates": [-71.12464527173195, 42.376358802858626]}, "type": "Feature", "id": 62, "properties": {"SITE_NAME": "Grace St. Foursquare Church", "GlobalID": "{F6BAE953-A3CD-4CF9-A717-817C9A72C51B}", "ADDRESS": "99 Brattle St"}},{"geometry": {"type": "Point", "coordinates": [-71.11956031793413, 42.39093378055157]}, "type": "Feature", "id": 63, "properties": {"SITE_NAME": "Haitian Baptist Church", "GlobalID": "{10545F67-85B8-4A67-9853-225B77464DE7}", "ADDRESS": "16 Beech Street"}},{"geometry": {"type": "Point", "coordinates": [-71.10004426665017, 42.370262837406145]}, "type": "Feature", "id": 64, "properties": {"SITE_NAME": "Islamic Society of Boston", "GlobalID": "{43D8D29F-866D-4FE2-982F-09F998060EB5}", "ADDRESS": "204 Prospect Street"}},{"geometry": {"type": "Point", "coordinates": [-71.13392762593539, 42.403473741216715]}, "type": "Feature", "id": 65, "properties": {"SITE_NAME": "St. Sava Serbian Orthodox Church", "GlobalID": "{0DD7A6F7-13FD-4045-A08C-B87D391CD265}", "ADDRESS": "45 Alewife Brook Parkway"}},{"geometry": {"type": "Point", "coordinates": [-71.12464523456035, 42.376358830178056]}, "type": "Feature", "id": 66, "properties": {"SITE_NAME": "St. John's Memorial Chapel", "GlobalID": "{AA10BE5C-63BA-4FCE-9987-2B6645DD5EDE}", "ADDRESS": "99 Brattle Street"}},{"geometry": {"type": "Point", "coordinates": [-71.10683089051713, 42.363382626954284]}, "type": "Feature", "id": 67, "properties": {"SITE_NAME": "First Korean Church in Cambridge", "GlobalID": "{0CADB470-B8B1-4011-88B8-F0CC16693468}", "ADDRESS": "35 Magazine Street"}},{"geometry": {"type": "Point", "coordinates": [-71.10281501484019, 42.36787019007801]}, "type": "Feature", "id": 68, "properties": {"SITE_NAME": "Iglesia Presbyteriana", "GlobalID": "{15951A91-97B9-49CD-8F2B-4BB0E3B69823}", "ADDRESS": "99 Prospect Street"}},{"geometry": {"type": "Point", "coordinates": [-71.0977799674142, 42.366814470861605]}, "type": "Feature", "id": 69, "properties": {"SITE_NAME": "Faithful & True Witness Apostolic Church", "GlobalID": "{9AFEF3C5-A846-46B5-A725-4C00EF8BEEBE}", "ADDRESS": "148 Columbia Street"}},{"geometry": {"type": "Point", "coordinates": [-71.09934279213519, 42.369326476756996]}, "type": "Feature", "id": 70, "properties": {"SITE_NAME": "Temple Beth Shalom", "GlobalID": "{0DDB272A-3145-4737-83CF-496AAB9B38D2}", "ADDRESS": "8 Tremont Street"}},{"geometry": {"type": "Point", "coordinates": [-71.1002837113338, 42.3693760977961]}, "type": "Feature", "id": 72, "properties": {"SITE_NAME": "Calvary Praise & Worship Center", "GlobalID": "{5B142897-6477-4DE8-B124-5DAFDE9E28EC}", "ADDRESS": "311 Broadway"}},{"geometry": {"type": "Point", "coordinates": [-71.11120255110046, 42.35854339996193]}, "type": "Feature", "id": 73, "properties": {"SITE_NAME": "Congregation Eitz Chayim", "GlobalID": "{FEB53B3E-4AF3-4EB5-9FED-4C708A34C3FC}", "ADDRESS": "136 Magazine Street"}},{"geometry": {"type": "Point", "coordinates": [-71.12468020626942, 42.3723187383635]}, "type": "Feature", "id": 74, "properties": {"SITE_NAME": "Society of St. John the Evangelist", "GlobalID": "{A1477B00-EE0C-4182-B8A0-848DCE4A26E4}", "ADDRESS": "980 Memorial Drive"}},{"geometry": {"type": "Point", "coordinates": [-71.08123762168032, 42.371394714505904]}, "type": "Feature", "id": 76, "properties": {"SITE_NAME": "St. Francis of Assisi", "GlobalID": "{D1D5FB23-6387-419C-963D-1BC7CD746D34}", "ADDRESS": "42 Sciarappa Street"}},{"geometry": {"type": "Point", "coordinates": [-71.12999784707453, 42.38150765929249]}, "type": "Feature", "id": 77, "properties": {"SITE_NAME": "St. Peter's Church", "GlobalID": "{6800235D-65B6-48C9-A695-DCFD5C1EE030}", "ADDRESS": "100 Concord Ave"}},{"geometry": {"type": "Point", "coordinates": [-71.11418493824746, 42.37174999167648]}, "type": "Feature", "id": 78, "properties": {"SITE_NAME": "Old Cambridge Baptist Church", "GlobalID": "{14937F4A-6522-42BE-A0AE-7BD591137782}", "ADDRESS": "1151 Massachusetts Ave"}},{"geometry": {"type": "Point", "coordinates": [-71.1313634647366, 42.392890983163284]}, "type": "Feature", "id": 80, "properties": {"SITE_NAME": "Vineyard Christian Fellowship of Greater Boston", "GlobalID": "{0AC276F4-7626-4C19-9BDB-8A47A071D277}", "ADDRESS": "170 Rindge Ave"}},{"geometry": {"type": "Point", "coordinates": [-71.09899883163338, 42.365368343109544]}, "type": "Feature", "id": 81, "properties": {"SITE_NAME": "Pentecostal Tabernacle Church", "GlobalID": "{C44F34EC-6324-421C-8827-DEB6FB3A1092}", "ADDRESS": "77 Columbia Street"}},{"geometry": {"type": "Point", "coordinates": [-71.10068625749074, 42.37257632125736]}, "type": "Feature", "id": 82, "properties": {"SITE_NAME": "Portuguese Evangelical Baptist Church", "GlobalID": "{24A60C2F-2A52-47C3-9E84-451C5BD51290}", "ADDRESS": "114 Inman Street"}},{"geometry": {"type": "Point", "coordinates": [-71.09346094568109, 42.37126969331179]}, "type": "Feature", "id": 83, "properties": {"SITE_NAME": "Immaculate Conception Church", "GlobalID": "{58B150EF-583A-41C7-B467-874B69D7EC83}", "ADDRESS": "432 Windsor Street"}},{"geometry": {"type": "Point", "coordinates": [-71.12045459374363, 42.39096554645344]}, "type": "Feature", "id": 87, "properties": {"SITE_NAME": "Cambridge Congregation of Jehovah's Witnesses", "GlobalID": "{6D230D05-153C-49D4-9796-3051BAC195EA}", "ADDRESS": "9 Beech St"}},{"geometry": {"type": "Point", "coordinates": [-71.09833640375903, 42.363637397717326]}, "type": "Feature", "id": 88, "properties": {"SITE_NAME": "Zion Pentecostal Tabernacle Church", "GlobalID": "{07AF8EA9-F957-40D8-ADB0-E96201E157EB}", "ADDRESS": "7 Bishop Allen Dr"}},{"geometry": {"type": "Point", "coordinates": [-71.12102045175108, 42.39352852551547]}, "type": "Feature", "id": 89, "properties": {"SITE_NAME": "Church of the Nazarene of West Somerville", "GlobalID": "{8F977F36-DF4E-4452-83E9-44A916517235}", "ADDRESS": "52 Russell St"}},{"geometry": {"type": "Point", "coordinates": [-71.10101025017863, 42.365954339065055]}, "type": "Feature", "id": 90, "properties": {"SITE_NAME": "The Gospel Room", "GlobalID": "{A4939144-A1F2-4099-929A-7BBE778BC555}", "ADDRESS": "69 Norfolk St"}},{"geometry": {"type": "Point", "coordinates": [-71.11274303037132, 42.35997217254398]}, "type": "Feature", "id": 91, "properties": {"SITE_NAME": "Gospel Hall Church", "GlobalID": "{0251CD18-8B0E-4611-9414-70269A9EF159}", "ADDRESS": "395 Putnam St"}},{"geometry": {"type": "Point", "coordinates": [-71.10732324106735, 42.362178120733226]}, "type": "Feature", "id": 92, "properties": {"SITE_NAME": "Heavenly Doors of the Apostolic Faith Church", "GlobalID": "{F8B83A22-0741-46F6-A4CD-3001AF30C6D4}", "ADDRESS": "56 Magazine St"}},{"geometry": {"type": "Point", "coordinates": [-71.10515580358106, 42.364777220310884]}, "type": "Feature", "id": 94, "properties": {"SITE_NAME": "Bethel Assembly of God", "GlobalID": "{5FCF2E11-D19C-4929-B0D1-15AC32415927}", "ADDRESS": "5 Magazine St"}},{"geometry": {"type": "Point", "coordinates": [-71.10601911424214, 42.364355479470895]}, "type": "Feature", "id": 95, "properties": {"SITE_NAME": "Cambridge Zen Center", "GlobalID": "{6EFEB7DB-F6DB-4E28-BCD3-96FDC0CC3EBD}", "ADDRESS": "199 Auburn St"}},{"geometry": {"type": "Point", "coordinates": [-71.07913217927172, 42.366232096529465]}, "type": "Feature", "id": 96, "properties": {"SITE_NAME": "Church of Jesus Christ of Latter Day Saints", "GlobalID": "{D8C0526C-805B-43EA-9B5C-C9937D847F2A}", "ADDRESS": "65 Binney St"}}]}