{"type":"FeatureCollection","features":[{"geometry": {"type": "Point", "coordinates": [-71.12297623036204, 42.37663667015214]}, "type": "Feature", "id": 1, "properties": {"SITE_NAME": "First Church Congregational", "GlobalID": "{227CFEFD-B770-4412-97D6-864FBBDE6A17}", "ADDRESS": "11 Garden Street"}},{"geometry": {"type": "Point", "coordinates": [-71.11535957548936, 42.37105122201018]}, "type": "Feature", "id": 2, "properties": {"SITE_NAME": "St Paul's Parish", "GlobalID": "{FA1619A8-D474-4B0C-90E3-AB80B0F57806}", "ADDRESS": "29 Mount Auburn Street"}},{"geometry": {"type": "Point", "coordinates": [-71.10186782829818, 42.37356965600614]}, "type": "Feature", "id": 3, "properties": {"SITE_NAME": "First Presbyterian Church", "GlobalID": "{DCE3AC34-3DE3-4A42-9435-C939BDD58F52}", "ADDRESS": "1418 Cambridge Street"}},{"geometry": {"type": "Point", "coordinates": [-71.09846372196331, 42.37209045673953]}, "type": "Feature", "id": 4, "properties": {"SITE_NAME": "Adventist Congregational Church", "GlobalID": "{9840A2CF-7765-4019-8BD2-5ABF969D510D}", "ADDRESS": "171 Hampshire Street"}},{"geometry": {"type": "Point", "coordinates": [-71.1002837113338, 42.369376097796085]}, "type": "Feature", "id": 5, "properties": {"SITE_NAME": "Faith Lutheran Church", "GlobalID": "{F82E5ECF-5538-4CAF-89A9-6B42A513AA00}", "ADDRESS": "311 Broadway"}},{"geometry": {"type": "Point", "coordinates": [-71.11091037876804, 42.35881857635897]}, "type": "Feature", "id": 6, "properties": {"SITE_NAME": "Cambridgeport Baptist Church", "GlobalID": "{F40956E7-7681-43A7-8EE3-2AC06DE395F7}", "ADDRESS": "459 Putnam Ave"}},{"geometry": {"type": "Point", "coordinates": [-71.09806927621445, 42.36382522991093]}, "type": "Feature", "id": 7, "properties": {"SITE_NAME": "Rush A.M.E. Zion Church", "GlobalID": "{BCC9EC57-34BE-42C6-8DAF-1E02C98A52C3}", "ADDRESS": "82 School Street"}},{"geometry": {"type": "Point", "coordinates": [-71.12086792816315, 42.39075715304797]}, "type": "Feature", "id": 8, "properties": {"SITE_NAME": "St. James Episcopal Church", "GlobalID": "{5545A3E9-2AA9-4904-9F0C-9F48D6D0A733}", "ADDRESS": "1991 Massachusetts Ave"}},{"geometry": {"type": "Point", "coordinates": [-71.09748920554821, 42.36675393462582]}, "type": "Feature", "id": 9, "properties": {"SITE_NAME": "Comm. Outreach Tabernacle", "GlobalID": "{13D15420-E740-446B-BF8A-CB118C32EC84}", "ADDRESS": "190 Harvard Street"}},{"geometry": {"type": "Point", "coordinates": [-71.11969537315454, 42.37793951210682]}, "type": "Feature", "id": 10, "properties": {"SITE_NAME": "Harvard-Epworth United Methodist", "GlobalID": "{57983D5D-C2FE-4E3A-995C-5DC8B67E3665}", "ADDRESS": "1555 Massachusetts Ave"}},{"geometry": {"type": "Point", "coordinates": [-71.09776048636554, 42.370936886953345]}, "type": "Feature", "id": 11, "properties": {"SITE_NAME": "Mass. Avenue Baptist Church", "GlobalID": "{F119D18C-4A7E-49C6-B8E8-1ECC78F7516A}", "ADDRESS": "146 Hampshire Street"}},{"geometry": {"type": "Point", "coordinates": [-71.11940738918275, 42.37457021277403]}, "type": "Feature", "id": 12, "properties": {"SITE_NAME": "First Parish Unitarian Universalist", "GlobalID": "{2545E60C-C258-4910-BEC8-A53530C327EC}", "ADDRESS": "1446 Massachusetts Ave"}},{"geometry": {"type": "Point", "coordinates": [-71.09751202317238, 42.36676191742328]}, "type": "Feature", "id": 13, "properties": {"SITE_NAME": "The Church of God of Prophecy", "GlobalID": "{98D7AED0-E413-4E96-95EE-EA70AAD7A901}", "ADDRESS": "190 Harvard Street"}},{"geometry": {"type": "Point", "coordinates": [-71.105085325053, 42.36421230150929]}, "type": "Feature", "id": 14, "properties": {"SITE_NAME": "Greek Orthodox Church", "GlobalID": "{6052BD55-D6BA-4F8F-A8EF-6BCCBF17B535}", "ADDRESS": "14 Magazine Street"}},{"geometry": {"type": "Point", "coordinates": [-71.0935076974885, 42.35826046845507]}, "type": "Feature", "id": 15, "properties": {"SITE_NAME": "MIT Catholic Community", "GlobalID": "{9B283231-2E23-4768-9A5B-47AE5428E856}", "ADDRESS": "40 Massachusetts Ave"}},{"geometry": {"type": "Point", "coordinates": [-71.1044251245045, 42.363816421850146]}, "type": "Feature", "id": 16, "properties": {"SITE_NAME": "Cambridge Community Fellowship Church", "GlobalID": "{1EACCC77-9A6D-486C-A2F4-B91EB8FF2D0F}", "ADDRESS": "234 Franklin Street"}},{"geometry": {"type": "Point", "coordinates": [-71.0995348567343, 42.36445687080475]}, "type": "Feature", "id": 17, "properties": {"SITE_NAME": "St. Paul AME Church", "GlobalID": "{9008F3CD-5992-41CE-B0D1-A90A35266878}", "ADDRESS": "37 Bishop Allen Drive"}},{"geometry": {"type": "Point", "coordinates": [-71.1273804699072, 42.37587988161698]}, "type": "Feature", "id": 18, "properties": {"SITE_NAME": "Friends Meeting At Cambridge", "GlobalID": "{890DCE15-6051-4063-8D3A-C87446E1F84A}", "ADDRESS": "5 Longfellow Pk"}},{"geometry": {"type": "Point", "coordinates": [-71.09897474011726, 42.36319337231091]}, "type": "Feature", "id": 19, "properties": {"SITE_NAME": "Union Baptist Church", "GlobalID": "{386F3D8A-555B-4C1E-94DC-B6D72A9C72CD}", "ADDRESS": "874 Main Street"}},{"geometry": {"type": "Point", "coordinates": [-71.08827159640323, 42.3716606524253]}, "type": "Feature", "id": 20, "properties": {"SITE_NAME": "St. Anthony's Church", "GlobalID": "{F0CCA967-5DE1-46A5-80F0-8CB563089B97}", "ADDRESS": "400 Cardinal Medeiros Ave"}},{"geometry": {"type": "Point", "coordinates": [-71.08530142617563, 42.370481608852415]}, "type": "Feature", "id": 21, "properties": {"SITE_NAME": "Sacred Heart Church", "GlobalID": "{BACADED3-8EEC-41CC-B76F-EA6D0814AD05}", "ADDRESS": "47 Sixth Street"}},{"geometry": {"type": "Point", "coordinates": [-71.10498767121263, 42.36681423176489]}, "type": "Feature", "id": 22, "properties": {"SITE_NAME": "St. Mary's Orthodox Church", "GlobalID": "{FFC05613-9A5C-42A2-B2BC-67589477C0DC}", "ADDRESS": "8 Inman Street"}},{"geometry": {"type": "Point", "coordinates": [-71.12052959971813, 42.37530998985552]}, "type": "Feature", "id": 23, "properties": {"SITE_NAME": "Christ Church Episcopal", "GlobalID": "{B1C0C960-92D0-4762-A21D-5D5E94B122D2}", "ADDRESS": "Zero Garden Street"}},{"geometry": {"type": "Point", "coordinates": [-71.09722616161152, 42.36863989772419]}, "type": "Feature", "id": 24, "properties": {"SITE_NAME": "First Holiness Church", "GlobalID": "{A6DAF139-E73B-4587-B782-3720F03D8BEB}", "ADDRESS": "211 Columbia Street"}},{"geometry": {"type": "Point", "coordinates": [-71.10314479075504, 42.37166386266788]}, "type": "Feature", "id": 25, "properties": {"SITE_NAME": "First Reformed Presbyterian Church", "GlobalID": "{8D701B92-B293-4B7D-94F2-E634D68DC8EF}", "ADDRESS": "53 Antrim Street"}},{"geometry": {"type": "Point", "coordinates": [-71.10018883471366, 42.36749020192801]}, "type": "Feature", "id": 26, "properties": {"SITE_NAME": "St. Mary of the Annunciation", "GlobalID": "{61F1827D-DCA8-4B15-A0E3-3EB9E1BB1B58}", "ADDRESS": "134 Norfold Street"}},{"geometry": {"type": "Point", "coordinates": [-71.10748747499984, 42.35850720879822]}, "type": "Feature", "id": 27, "properties": {"SITE_NAME": "St. Augustine African Orthodox Church", "GlobalID": "{90CAE6D8-1DC7-4475-A35B-88BCE47F3861}", "ADDRESS": "137 Allston Street"}},{"geometry": {"type": "Point", "coordinates": [-71.10507995195259, 42.364823993425944]}, "type": "Feature", "id": 28, "properties": {"SITE_NAME": "First Baptist Church", "GlobalID": "{F7C54B55-619A-4E67-A6BE-C74B580A32A7}", "ADDRESS": "5 Magazine Street"}},{"geometry": {"type": "Point", "coordinates": [-71.11956031793413, 42.39093378055157]}, "type": "Feature", "id": 29, "properties": {"SITE_NAME": "Hope Fellowship Church", "GlobalID": "{5397EDCE-ED3C-4253-B729-9D55FBB24104}", "ADDRESS": "16 Beech Street"}},{"geometry": {"type": "Point", "coordinates": [-71.13073457266127, 42.37825740140424]}, "type": "Feature", "id": 30, "properties": {"SITE_NAME": "Holy Trinity Armenian Apostolic Church", "GlobalID": "{3E50A6E4-3704-4FD4-A539-73167503D5A7}", "ADDRESS": "145 Brattle Street"}},{"geometry": {"type": "Point", "coordinates": [-71.1126597019457, 42.36477685909425]}, "type": "Feature", "id": 31, "properties": {"SITE_NAME": "Western Avenue Baptist Church", "GlobalID": "{040F396A-CA60-439B-A9F0-5E2005BF2620}", "ADDRESS": "299 Western Ave"}},{"geometry": {"type": "Point", "coordinates": [-71.13183346643824, 42.379920864606824]}, "type": "Feature", "id": 32, "properties": {"SITE_NAME": "Cambridge Buddhist Association", "GlobalID": "{8E7A2DFD-542F-46C2-9365-F0B49CF98674}", "ADDRESS": "75 Sparks Street"}},{"geometry": {"type": "Point", "coordinates": [-71.1273804699072, 42.37587988161698]}, "type": "Feature", "id": 33, "properties": {"SITE_NAME": "Cambridge Dzogchen Center", "GlobalID": "{120C0160-1765-475B-B14A-6B4E05CEB6F3}", "ADDRESS": "5 Longfellow Pk"}},{"geometry": {"type": "Point", "coordinates": [-71.12612033250842, 42.37611340202184]}, "type": "Feature", "id": 34, "properties": {"SITE_NAME": "Church of Jesus Christ of Latter Day Saints", "GlobalID": "{9E887AF5-664B-40B5-88B5-BF3F3FC7FB33}", "ADDRESS": "2 Longfellow Park"}},{"geometry": {"type": "Point", "coordinates": [-71.10055465408279, 42.368129773102616]}, "type": "Feature", "id": 35, "properties": {"SITE_NAME": "St. Bartholomew's Episcopal Church", "GlobalID": "{07B6929A-59E3-4399-A088-40300C481E2E}", "ADDRESS": "239 Harvard Street"}},{"geometry": {"type": "Point", "coordinates": [-71.12074707697036, 42.378152877902124]}, "type": "Feature", "id": 36, "properties": {"SITE_NAME": "First Church of Christ Scientist", "GlobalID": "{ADC88D4D-DEDB-4D0E-9A17-0FADCBDFD100}", "ADDRESS": "41 Follen Street"}},{"geometry": {"type": "Point", "coordinates": [-71.12741178575912, 42.39425341326827]}, "type": "Feature", "id": 37, "properties": {"SITE_NAME": "St. John the Evangelist Catholic Church", "GlobalID": "{627B916D-52FA-4974-87AF-2DD8D28C27A9}", "ADDRESS": "2254 Massachusetts Ave"}},{"geometry": {"type": "Point", "coordinates": [-71.11352824467237, 42.376475139040494]}, "type": "Feature", "id": 38, "properties": {"SITE_NAME": "Anglican Church of the Incarnation", "GlobalID": "{5FE2406F-D00F-475A-8451-2E37878FB0BF}", "ADDRESS": "50 Quincy Street"}},{"geometry": {"type": "Point", "coordinates": [-71.10706195408241, 42.36706597128804]}, "type": "Feature", "id": 39, "properties": {"SITE_NAME": "St. Peter's Episcopal Church", "GlobalID": "{549D4AAA-853A-4FDC-8225-FB70DA7E6FAB}", "ADDRESS": "838 Massachusetts Ave"}},{"geometry": {"type": "Point", "coordinates": [-71.12001201528744, 42.37173997183572]}, "type": "Feature", "id": 40, "properties": {"SITE_NAME": "University Lutheran Church", "GlobalID": "{2BB5D477-09D5-495A-BE8E-6BFE8E0EAF39}", "ADDRESS": "66 Winthrop Street"}},{"geometry": {"type": "Point", "coordinates": [-71.10444607763249, 42.36382667445234]}, "type": "Feature", "id": 41, "properties": {"SITE_NAME": "Cambridge Community Fellowship Church", "GlobalID": "{BC4533D0-7D11-4E0F-9ABB-F4E0813B1617}", "ADDRESS": "234 Franklin Street"}},{"geometry": {"type": "Point", "coordinates": [-71.11713376586768, 42.374555505170925]}, "type": "Feature", "id": 42, "properties": {"SITE_NAME": "The Memorial Church of Harvard University", "GlobalID": "{40247BE1-A752-4EC5-A057-CE99DFA24A18}", "ADDRESS": "1 Harvard Yard"}},{"geometry": {"type": "Point", "coordinates": [-71.11106149765018, 42.36525541154261]}, "type": "Feature", "id": 43, "properties": {"SITE_NAME": "Abundant Life Church", "GlobalID": "{96554738-7E08-47A7-97A1-75DD4E183B7A}", "ADDRESS": "47 Howard Street"}},{"geometry": {"type": "Point", "coordinates": [-71.10719059436416, 42.363905670352985]}, "type": "Feature", "id": 44, "properties": {"SITE_NAME": "Antioch Temple Church", "GlobalID": "{CFD05899-4200-4CB0-B940-A5D7C95EFC9B}", "ADDRESS": "44 William St"}},{"geometry": {"type": "Point", "coordinates": [-71.09695993510051, 42.36349076832126]}, "type": "Feature", "id": 45, "properties": {"SITE_NAME": "Christian Mission Holiness Church", "GlobalID": "{3EE50A39-C709-4DFF-BC32-D1655270782F}", "ADDRESS": "789 Main Street"}},{"geometry": {"type": "Point", "coordinates": [-71.1027592236602, 42.36785065165873]}, "type": "Feature", "id": 46, "properties": {"SITE_NAME": "Christ the King Presbyterian Church", "GlobalID": "{3707EB41-A6D2-4659-9FFD-AC4695B05861}", "ADDRESS": "99 Prospect Street"}},{"geometry": {"type": "Point", "coordinates": [-71.12464527173195, 42.37635880285863]}, "type": "Feature", "id": 47, "properties": {"SITE_NAME": "St John's Memorial Church", "GlobalID": "{70A8D457-D72D-444C-8220-AA9BDD93FF16}", "ADDRESS": "99 Brattle St"}},{"geometry": {"type": "Point", "coordinates": [-71.11956031793413, 42.39093378055157]}, "type": "Feature", "id": 48, "properties": {"SITE_NAME": "Haitian Baptist Church", "GlobalID": "{EBC2EE2E-21F1-465A-BD0A-5526BF06EF43}", "ADDRESS": "16 Beech Street"}},{"geometry": {"type": "Point", "coordinates": [-71.10004426665017, 42.37026283740613]}, "type": "Feature", "id": 49, "properties": {"SITE_NAME": "Islamic Society of Boston", "GlobalID": "{E2CEBBB1-FF5D-47E0-8233-7C1F7200E055}", "ADDRESS": "204 Prospect Street"}},{"geometry": {"type": "Point", "coordinates": [-71.13355895991342, 42.402995309657555]}, "type": "Feature", "id": 50, "properties": {"SITE_NAME": "St. Sava Serbian Orthodox Church", "GlobalID": "{DAA98C7A-16CA-4854-9022-D5FF556DFE4C}", "ADDRESS": "41 Alewife Brook Parkway"}},{"geometry": {"type": "Point", "coordinates": [-71.10683089051713, 42.363382626954284]}, "type": "Feature", "id": 51, "properties": {"SITE_NAME": "First Korean Church in Cambridge", "GlobalID": "{E18F59AE-D006-481E-BEEC-C55C269A9146}", "ADDRESS": "35 Magazine Street"}},{"geometry": {"type": "Point", "coordinates": [-71.10281501484019, 42.367870190078]}, "type": "Feature", "id": 52, "properties": {"SITE_NAME": "Christ Presbytarian Church", "GlobalID": "{5E256275-3839-4505-8CEF-4D239A5A13B6}", "ADDRESS": "99 Prospect Street"}},{"geometry": {"type": "Point", "coordinates": [-71.0973360363442, 42.37070306688613]}, "type": "Feature", "id": 53, "properties": {"SITE_NAME": "Faithful & True Witness Apostolic Church", "GlobalID": "{023F21C7-0963-4456-B7BD-5F4862718549}", "ADDRESS": "139 Hampshire Street"}},{"geometry": {"type": "Point", "coordinates": [-71.09934279213519, 42.369326476756996]}, "type": "Feature", "id": 54, "properties": {"SITE_NAME": "Temple Beth Shalom", "GlobalID": "{5DCCAE13-2D62-47D8-9FD5-1AE86E2FA2DF}", "ADDRESS": "8 Tremont Street"}},{"geometry": {"type": "Point", "coordinates": [-71.1002837113338, 42.369376097796085]}, "type": "Feature", "id": 55, "properties": {"SITE_NAME": "Calvary Praise & Worship Center", "GlobalID": "{1F8CA044-F1F4-469D-ABDB-FE7AF0051019}", "ADDRESS": "311 Broadway"}},{"geometry": {"type": "Point", "coordinates": [-71.11120255110046, 42.35854339996193]}, "type": "Feature", "id": 56, "properties": {"SITE_NAME": "Congregation Eitz Chayim", "GlobalID": "{946DF5FE-34E6-46D5-B051-062AC7696A8D}", "ADDRESS": "136 Magazine Street"}},{"geometry": {"type": "Point", "coordinates": [-71.12468020626942, 42.37231873836348]}, "type": "Feature", "id": 57, "properties": {"SITE_NAME": "Society of St. John the Evangelist", "GlobalID": "{84580C9A-4EBC-4A1F-BDC6-3D405870B9A9}", "ADDRESS": "980 Memorial Drive"}},{"geometry": {"type": "Point", "coordinates": [-71.08123762168032, 42.371394714505904]}, "type": "Feature", "id": 58, "properties": {"SITE_NAME": "St. Francis of Assisi", "GlobalID": "{FF412715-2083-4DD1-A14C-5BFA263C2225}", "ADDRESS": "42 Sciarappa Street"}},{"geometry": {"type": "Point", "coordinates": [-71.12999784707453, 42.38150765929249]}, "type": "Feature", "id": 59, "properties": {"SITE_NAME": "St. Peter's Church", "GlobalID": "{737416D4-F857-4F46-9CB6-5DAE6EB0847A}", "ADDRESS": "100 Concord Ave"}},{"geometry": {"type": "Point", "coordinates": [-71.11418493824746, 42.37174999167648]}, "type": "Feature", "id": 60, "properties": {"SITE_NAME": "Old Cambridge Baptist Church", "GlobalID": "{3A9D871E-CC0B-49CA-8E2B-19CDEE7F253E}", "ADDRESS": "1151 Massachusetts Ave"}},{"geometry": {"type": "Point", "coordinates": [-71.1313634647366, 42.39289098316327]}, "type": "Feature", "id": 61, "properties": {"SITE_NAME": "Vineyard Christian Fellowship of Greater Boston", "GlobalID": "{81B66023-0F8C-4FDC-A5D0-96709E90D0C8}", "ADDRESS": "170 Rindge Ave"}},{"geometry": {"type": "Point", "coordinates": [-71.09899883163338, 42.365368343109544]}, "type": "Feature", "id": 62, "properties": {"SITE_NAME": "Pentecostal Tabernacle- North", "GlobalID": "{1BB94E5A-B3FE-4905-AC40-1B2B26CE60D8}", "ADDRESS": "77 Columbia Street"}},{"geometry": {"type": "Point", "coordinates": [-71.10068625749074, 42.37257632125736]}, "type": "Feature", "id": 63, "properties": {"SITE_NAME": "Portuguese Evangelical Baptist Church", "GlobalID": "{CF338BB3-43FF-4125-BD46-792F4DAB2BF7}", "ADDRESS": "114 Inman Street"}},{"geometry": {"type": "Point", "coordinates": [-71.09346094568109, 42.37126969331179]}, "type": "Feature", "id": 64, "properties": {"SITE_NAME": "Immaculate Conception Church", "GlobalID": "{100E519F-3E48-4FE2-87EA-F0071FC5DB5A}", "ADDRESS": "430 Windsor Street"}},{"geometry": {"type": "Point", "coordinates": [-71.12045459374363, 42.390965546453415]}, "type": "Feature", "id": 65, "properties": {"SITE_NAME": "Cambridge Congregation of Jehovah's Witnesses", "GlobalID": "{C8706C2C-CA52-4F77-A84D-B228994E2CF6}", "ADDRESS": "9 Beech St"}},{"geometry": {"type": "Point", "coordinates": [-71.10101025017863, 42.365954339065055]}, "type": "Feature", "id": 66, "properties": {"SITE_NAME": "The Gospel Room", "GlobalID": "{9B98313E-312C-4FA4-91CD-9C0075EA9150}", "ADDRESS": "69 Norfolk St"}},{"geometry": {"type": "Point", "coordinates": [-71.11274303037132, 42.35997217254398]}, "type": "Feature", "id": 67, "properties": {"SITE_NAME": "Gospel Hall Church", "GlobalID": "{4E8E2C57-EBE2-47C4-9DC2-2D478CC3D7BC}", "ADDRESS": "395 Putnam St"}},{"geometry": {"type": "Point", "coordinates": [-71.10732324106735, 42.362178120733226]}, "type": "Feature", "id": 68, "properties": {"SITE_NAME": "Pentecostal Tabernacle-South", "GlobalID": "{E612221F-9747-458E-AF40-B80A96187C03}", "ADDRESS": "56 Magazine St"}},{"geometry": {"type": "Point", "coordinates": [-71.10515580358106, 42.36477722031088]}, "type": "Feature", "id": 69, "properties": {"SITE_NAME": "Bethel Assembly of God", "GlobalID": "{17AF8174-61D2-4725-99B0-9443A5025456}", "ADDRESS": "5 Magazine St"}},{"geometry": {"type": "Point", "coordinates": [-71.10601911424214, 42.364355479470895]}, "type": "Feature", "id": 70, "properties": {"SITE_NAME": "Cambridge Zen Center", "GlobalID": "{5BAD0BC6-4F53-4066-BE40-41EC4BFBA467}", "ADDRESS": "199 Auburn St"}},{"geometry": {"type": "Point", "coordinates": [-71.07913217927172, 42.366232096529465]}, "type": "Feature", "id": 71, "properties": {"SITE_NAME": "Church of Jesus Christ of Latter Day Saints", "GlobalID": "{91EC0875-EB4F-49F1-BEAB-9460121F13C6}", "ADDRESS": "65 Binney St"}},{"geometry": {"type": "Point", "coordinates": [-71.10591416100937, 42.36555970664745]}, "type": "Feature", "id": 72, "properties": {"EditDate": "2015", "SITE_NAME": "Church in Cambridge", "GlobalID": "{61333624-E56C-49B0-8FD3-D5013D3F5C3C}", "ADDRESS": "380 Green Street"}},{"geometry": {"type": "Point", "coordinates": [-71.10164336351701, 42.365751712826416]}, "type": "Feature", "id": 73, "properties": {"EditDate": "2015", "SITE_NAME": "St. Paul AME Church", "GlobalID": "{54EE9630-E3D4-4E26-9DB2-0030D085D8B2}", "ADDRESS": "85 Bishop Allen Drive"}},{"geometry": {"type": "Point", "coordinates": [-71.13905910597182, 42.39382669819276]}, "type": "Feature", "id": 74, "properties": {"EditDate": "2020", "SITE_NAME": "Islamic Center of Rindge Avenue (Fresh Pond Mall)", "GlobalID": "{A04EA349-48AC-47F0-8F16-CD21B6891BB9}", "ADDRESS": "378 Rindge Avenue"}},{"geometry": {"type": "Point", "coordinates": [-71.15431368398879, 42.391183039722144]}, "type": "Feature", "id": 75, "properties": {"EditDate": "2020", "SITE_NAME": "Kahal B'raira", "GlobalID": "{69BBDE2B-A1F5-4797-BD9E-874D0D68DB80}", "ADDRESS": "765 Concord Avenue"}},{"geometry": {"type": "Point", "coordinates": [-71.11744107099257, 42.37142303267247]}, "type": "Feature", "id": 76, "properties": {"EditDate": "2020", "SITE_NAME": "Worship & Study Minyan", "GlobalID": "{8E0EFC7D-A9E3-4636-9B8C-C895E2D2BD84}", "ADDRESS": "52 Mount Auburn St"}},{"geometry": {"type": "Point", "coordinates": [-71.12077679073505, 42.375729002290036]}, "type": "Feature", "id": 77, "properties": {"EditDate": "2020", "SITE_NAME": "The Episcopal Chaplaincy at Harvard", "GlobalID": "{E99CE3E2-404B-4DA3-81F9-5DB8A29CDC78}", "ADDRESS": "2 Garden St"}},{"geometry": {"type": "Point", "coordinates": [-71.09333942424682, 42.35912825488014]}, "type": "Feature", "id": 78, "properties": {"EditDate": "2020", "SITE_NAME": "Lutheran Episcopal Ministry", "GlobalID": "{645B4407-6645-4F4E-8FBE-CA8FAB7D412F}", "ADDRESS": "77 Massachusetts Ave"}},{"geometry": {"type": "Point", "coordinates": [-71.12731780149923, 42.37585343243867]}, "type": "Feature", "id": 79, "properties": {"EditDate": "2020", "SITE_NAME": "Friends Meeting at Cambridge", "GlobalID": "{D4BFB5D3-E769-49F2-874C-3354B6B92E0D}", "ADDRESS": "5 Longfellow Pk"}},{"geometry": {"type": "Point", "coordinates": [-71.10028285610541, 42.36312189514846]}, "type": "Feature", "id": 80, "properties": {"EditDate": "2020", "SITE_NAME": "Cambridge Corps", "GlobalID": "{4C42A19B-E03F-4636-BD8E-262A7556A2FA}", "ADDRESS": "402 Massachusetts Ave"}},{"geometry": {"type": "Point", "coordinates": [-71.13063474167555, 42.387697452632665]}, "type": "Feature", "id": 81, "properties": {"EditDate": "2020", "SITE_NAME": "Fresh Pond Monthly Meeting", "GlobalID": "{03E993B3-B184-4EE0-851F-DA1A1739210C}", "ADDRESS": "5 Cadbury Road"}},{"geometry": {"type": "Point", "coordinates": [-71.09833079900193, 42.36359061384476]}, "type": "Feature", "id": 82, "properties": {"EditDate": "2020", "SITE_NAME": "Zion Pentecostal Tabernacle Church", "GlobalID": "{135112AA-1E10-4553-8C33-BADE6883A97D}", "ADDRESS": "7 Bishop Allen Dr"}}]}