{"type":"FeatureCollection","features":[{"geometry": {"type": "Point", "coordinates": [-71.12008148466995, 42.38999286240562]}, "type": "Feature", "id": 1, "properties": {"PONAME": "Porter Square", "MAPID": "101-5", "GlobalID": "{003FC948-27E7-4978-B236-883D897167B6}", "ADDRESS": "1953 Massachusetts Ave"}},{"geometry": {"type": "Point", "coordinates": [-71.09936059400923, 42.37372521146519]}, "type": "Feature", "id": 2, "properties": {"PONAME": "Inman Square", "MAPID": "340-9", "GlobalID": "{5AECD60D-1411-400A-826F-476BFE55D9F4}", "ADDRESS": "1311 Cambridge St"}},{"geometry": {"type": "Point", "coordinates": [-71.08094342443371, 42.3713379931731]}, "type": "Feature", "id": 3, "properties": {"PONAME": "East Cambridge", "MAPID": "422-14", "GlobalID": "{9A58A2C8-E4F7-4ACD-A4FA-D68B2AC9D142}", "ADDRESS": "303 Cambridge St"}},{"geometry": {"type": "Point", "coordinates": [-71.10604395773774, 42.36633152139204]}, "type": "Feature", "id": 4, "properties": {"PONAME": "Central Square", "MAPID": "575-4", "GlobalID": "{77A43483-3972-4E94-87F5-C84EF4D248AB}", "ADDRESS": "770 Massachusetts Ave"}},{"geometry": {"type": "Point", "coordinates": [-71.08473248534068, 42.362067928872335]}, "type": "Feature", "id": 5, "properties": {"PONAME": "Kendall Square", "MAPID": "677-1", "GlobalID": "{A988A7E7-A252-4D6A-AFE7-8345995296D6}", "ADDRESS": "250 Main St"}},{"geometry": {"type": "Point", "coordinates": [-71.09496062868519, 42.35897979784866]}, "type": "Feature", "id": 6, "properties": {"PONAME": "MIT Station", "MAPID": "708-5", "GlobalID": "{F38589E1-24B4-439A-9B79-340BD69892C5}", "ADDRESS": "84 Massachusetts Ave"}},{"geometry": {"type": "Point", "coordinates": [-71.122819410951, 42.373572784911865]}, "type": "Feature", "id": 8, "properties": {"PONAME": "Harvard Square", "MAPID": "355-7", "GlobalID": "{A42D0E08-4F15-4F60-B192-73E98EF5C30D}", "ADDRESS": "125 Mt Auburn St"}}]}