{"type":"FeatureCollection","features":[{"geometry": {"type": "Point", "coordinates": [-71.12008148466995, 42.38999286240562]}, "type": "Feature", "id": 1, "properties": {"PONAME": "Porter Square", "MAPID": "101-5", "GlobalID": "{F9FE47FF-B004-4E2F-A083-29C43E86FBA0}", "ADDRESS": "1953 Massachusetts Ave"}},{"geometry": {"type": "Point", "coordinates": [-71.09936059400923, 42.37372521146519]}, "type": "Feature", "id": 2, "properties": {"PONAME": "Inman Square", "MAPID": "340-9", "GlobalID": "{2CF61439-FDAF-4E9C-B745-496D56FCDB57}", "ADDRESS": "1311 Cambridge St"}},{"geometry": {"type": "Point", "coordinates": [-71.08094342443371, 42.37133799317309]}, "type": "Feature", "id": 3, "properties": {"PONAME": "East Cambridge", "MAPID": "422-14", "GlobalID": "{E1B5156D-B1BE-4C3F-9FAC-2BB22B4B3106}", "ADDRESS": "303 Cambridge St"}},{"geometry": {"type": "Point", "coordinates": [-71.10604395773774, 42.36633152139204]}, "type": "Feature", "id": 4, "properties": {"PONAME": "Central Square", "MAPID": "575-4", "GlobalID": "{A5CFB112-D220-405A-B0FC-4E27ADDCAA8F}", "ADDRESS": "770 Massachusetts Ave"}},{"geometry": {"type": "Point", "coordinates": [-71.09496062868519, 42.35897979784865]}, "type": "Feature", "id": 5, "properties": {"PONAME": "MIT Station", "MAPID": "708-5", "GlobalID": "{9382F01B-EEA1-43B2-A727-C9BDBB04856A}", "ADDRESS": "84 Massachusetts Ave"}},{"geometry": {"type": "Point", "coordinates": [-71.122819410951, 42.373572784911865]}, "type": "Feature", "id": 6, "properties": {"PONAME": "Harvard Square", "MAPID": "355-7", "GlobalID": "{86CD80AE-9C77-4F05-AC2A-8C50D1A6D491}", "ADDRESS": "125 Mt Auburn St"}},{"geometry": {"type": "Point", "coordinates": [-71.0776687228673, 42.36825340121592]}, "type": "Feature", "id": 7, "properties": {"PONAME": "Kendall Square", "MAPID": "677-1", "GlobalID": "{A649AB1D-CC9D-498D-9269-88D023AE4F3D}", "ADDRESS": "91 1st St"}}]}